{"type":"FeatureCollection","id":"The Brothers Sun","swarm_features":185,"features":[{"type":"Feature","properties":{"country_code":"RUS","city":"Moscow","geoname_id":"524901","downloaders":"{\"size\":386063,\"mobile\":14814,\"satellite\":3,\"tor\":0,\"tor_exit_nodes\":5,\"vpn\":18836,\"relay\":0,\"proxy\":42,\"hosting\":50085,\"service\":4412}","uploaders":"{\"size\":1158,\"mobile\":71,\"satellite\":0,\"tor\":0,\"tor_exit_nodes\":0,\"vpn\":26,\"relay\":0,\"proxy\":0,\"hosting\":214,\"service\":6}"},"geometry":{"type":"Point","coordinates":[37.61556,55.75222]}},{"type":"Feature","properties":{"country_code":"KOR","city":"Seoul","geoname_id":"1835848","downloaders":"{\"size\":331081,\"mobile\":676,\"satellite\":0,\"tor\":0,\"tor_exit_nodes\":0,\"vpn\":5840,\"relay\":53,\"proxy\":0,\"hosting\":4236,\"service\":1147}","uploaders":"{\"size\":1260,\"mobile\":44,\"satellite\":0,\"tor\":0,\"tor_exit_nodes\":0,\"vpn\":28,\"relay\":0,\"proxy\":0,\"hosting\":34,\"service\":20}"},"geometry":{"type":"Point","coordinates":[126.9784,37.566]}},{"type":"Feature","properties":{"country_code":"TUR","city":"Istanbul","geoname_id":"745044","downloaders":"{\"size\":189395,\"mobile\":14789,\"satellite\":0,\"tor\":0,\"tor_exit_nodes\":0,\"vpn\":322,\"relay\":0,\"proxy\":0,\"hosting\":635,\"service\":191}","uploaders":"{\"size\":582,\"mobile\":58,\"satellite\":0,\"tor\":0,\"tor_exit_nodes\":0,\"vpn\":29,\"relay\":0,\"proxy\":0,\"hosting\":35,\"service\":29}"},"geometry":{"type":"Point","coordinates":[28.94966,41.01384]}},{"type":"Feature","properties":{"country_code":"RUS","city":"Saint Petersburg","geoname_id":"498817","downloaders":"{\"size\":187352,\"mobile\":6207,\"satellite\":0,\"tor\":0,\"tor_exit_nodes\":0,\"vpn\":4071,\"relay\":0,\"proxy\":14,\"hosting\":7678,\"service\":146}","uploaders":"{\"size\":584,\"mobile\":123,\"satellite\":0,\"tor\":0,\"tor_exit_nodes\":0,\"vpn\":11,\"relay\":0,\"proxy\":0,\"hosting\":105,\"service\":0}"},"geometry":{"type":"Point","coordinates":[30.31413,59.93863]}},{"type":"Feature","properties":{"country_code":"NLD","city":"Amsterdam","geoname_id":"2759794","downloaders":"{\"size\":182183,\"mobile\":127,\"satellite\":2,\"tor\":100,\"tor_exit_nodes\":146,\"vpn\":41337,\"relay\":11,\"proxy\":0,\"hosting\":166094,\"service\":16676}","uploaders":"{\"size\":5693,\"mobile\":41,\"satellite\":0,\"tor\":3,\"tor_exit_nodes\":5,\"vpn\":2850,\"relay\":1,\"proxy\":0,\"hosting\":4667,\"service\":2394}"},"geometry":{"type":"Point","coordinates":[4.88969,52.37403]}},{"type":"Feature","properties":{"country_code":"CHN","city":"Shanghai","geoname_id":"1796236","downloaders":"{\"size\":127821,\"mobile\":1368,\"satellite\":0,\"tor\":0,\"tor_exit_nodes\":0,\"vpn\":1363,\"relay\":0,\"proxy\":0,\"hosting\":13357,\"service\":0}","uploaders":"{\"size\":2871,\"mobile\":20,\"satellite\":0,\"tor\":0,\"tor_exit_nodes\":0,\"vpn\":5,\"relay\":0,\"proxy\":0,\"hosting\":393,\"service\":0}"},"geometry":{"type":"Point","coordinates":[121.45806,31.22222]}},{"type":"Feature","properties":{"country_code":"GBR","city":"London","geoname_id":"2643743","downloaders":"{\"size\":121795,\"mobile\":3992,\"satellite\":124,\"tor\":0,\"tor_exit_nodes\":5,\"vpn\":22159,\"relay\":307,\"proxy\":2,\"hosting\":27489,\"service\":19994}","uploaders":"{\"size\":7140,\"mobile\":683,\"satellite\":31,\"tor\":0,\"tor_exit_nodes\":0,\"vpn\":3506,\"relay\":78,\"proxy\":0,\"hosting\":3327,\"service\":3184}"},"geometry":{"type":"Point","coordinates":[-0.12574,51.50853]}},{"type":"Feature","properties":{"country_code":"FRA","city":"Paris","geoname_id":"2988507","downloaders":"{\"size\":103224,\"mobile\":17888,\"satellite\":85,\"tor\":34,\"tor_exit_nodes\":50,\"vpn\":12308,\"relay\":87,\"proxy\":1,\"hosting\":30080,\"service\":8833}","uploaders":"{\"size\":2640,\"mobile\":592,\"satellite\":14,\"tor\":0,\"tor_exit_nodes\":0,\"vpn\":1045,\"relay\":33,\"proxy\":0,\"hosting\":1259,\"service\":1027}"},"geometry":{"type":"Point","coordinates":[2.3488,48.85341]}},{"type":"Feature","properties":{"country_code":"MEX","city":"Mexico City","geoname_id":"3530597","downloaders":"{\"size\":93729,\"mobile\":121,\"satellite\":105,\"tor\":0,\"tor_exit_nodes\":0,\"vpn\":144,\"relay\":18,\"proxy\":0,\"hosting\":173,\"service\":138}","uploaders":"{\"size\":986,\"mobile\":2,\"satellite\":16,\"tor\":0,\"tor_exit_nodes\":0,\"vpn\":25,\"relay\":3,\"proxy\":0,\"hosting\":35,\"service\":26}"},"geometry":{"type":"Point","coordinates":[-99.12766,19.42847]}},{"type":"Feature","properties":{"country_code":"HUN","city":"Budapest","geoname_id":"3054643","downloaders":"{\"size\":93291,\"mobile\":3686,\"satellite\":0,\"tor\":0,\"tor_exit_nodes\":1,\"vpn\":2438,\"relay\":0,\"proxy\":0,\"hosting\":2764,\"service\":401}","uploaders":"{\"size\":714,\"mobile\":23,\"satellite\":0,\"tor\":0,\"tor_exit_nodes\":0,\"vpn\":40,\"relay\":0,\"proxy\":0,\"hosting\":37,\"service\":26}"},"geometry":{"type":"Point","coordinates":[19.04045,47.49835]}},{"type":"Feature","properties":{"country_code":"RUS","city":"Yekaterinburg","geoname_id":"1486209","downloaders":"{\"size\":74752,\"mobile\":4738,\"satellite\":0,\"tor\":0,\"tor_exit_nodes\":0,\"vpn\":2252,\"relay\":0,\"proxy\":0,\"hosting\":5733,\"service\":359}","uploaders":"{\"size\":138,\"mobile\":22,\"satellite\":0,\"tor\":0,\"tor_exit_nodes\":0,\"vpn\":3,\"relay\":0,\"proxy\":0,\"hosting\":15,\"service\":0}"},"geometry":{"type":"Point","coordinates":[60.6122,56.8519]}},{"type":"Feature","properties":{"country_code":"POL","city":"Warsaw","geoname_id":"756135","downloaders":"{\"size\":72274,\"mobile\":6005,\"satellite\":102,\"tor\":52,\"tor_exit_nodes\":55,\"vpn\":1648,\"relay\":0,\"proxy\":0,\"hosting\":4665,\"service\":1216}","uploaders":"{\"size\":1122,\"mobile\":72,\"satellite\":43,\"tor\":0,\"tor_exit_nodes\":1,\"vpn\":183,\"relay\":0,\"proxy\":0,\"hosting\":457,\"service\":173}"},"geometry":{"type":"Point","coordinates":[21.01178,52.22977]}},{"type":"Feature","properties":{"country_code":"USA","city":"Ashburn","geoname_id":"4744870","downloaders":"{\"size\":71799,\"mobile\":99,\"satellite\":20,\"tor\":0,\"tor_exit_nodes\":0,\"vpn\":3778,\"relay\":0,\"proxy\":0,\"hosting\":70343,\"service\":3533}","uploaders":"{\"size\":4075,\"mobile\":14,\"satellite\":3,\"tor\":0,\"tor_exit_nodes\":0,\"vpn\":611,\"relay\":0,\"proxy\":0,\"hosting\":3909,\"service\":576}"},"geometry":{"type":"Point","coordinates":[-77.48749,39.04372]}},{"type":"Feature","properties":{"country_code":"RUS","city":"Novosibirsk","geoname_id":"1496747","downloaders":"{\"size\":68675,\"mobile\":4994,\"satellite\":0,\"tor\":0,\"tor_exit_nodes\":0,\"vpn\":227,\"relay\":0,\"proxy\":0,\"hosting\":291,\"service\":66}","uploaders":"{\"size\":107,\"mobile\":7,\"satellite\":0,\"tor\":0,\"tor_exit_nodes\":0,\"vpn\":0,\"relay\":0,\"proxy\":0,\"hosting\":4,\"service\":0}"},"geometry":{"type":"Point","coordinates":[82.94339,55.03442]}},{"type":"Feature","properties":{"country_code":"BRA","city":"São Paulo","geoname_id":"3448439","downloaders":"{\"size\":68519,\"mobile\":8278,\"satellite\":91,\"tor\":0,\"tor_exit_nodes\":0,\"vpn\":654,\"relay\":0,\"proxy\":0,\"hosting\":2336,\"service\":513}","uploaders":"{\"size\":451,\"mobile\":60,\"satellite\":8,\"tor\":0,\"tor_exit_nodes\":0,\"vpn\":68,\"relay\":0,\"proxy\":0,\"hosting\":119,\"service\":67}"},"geometry":{"type":"Point","coordinates":[-46.63611,-23.5475]}},{"type":"Feature","properties":{"country_code":"ESP","city":"Madrid","geoname_id":"3117735","downloaders":"{\"size\":67209,\"mobile\":28007,\"satellite\":91,\"tor\":0,\"tor_exit_nodes\":0,\"vpn\":5935,\"relay\":115,\"proxy\":1,\"hosting\":6269,\"service\":5556}","uploaders":"{\"size\":7202,\"mobile\":2879,\"satellite\":13,\"tor\":0,\"tor_exit_nodes\":0,\"vpn\":1312,\"relay\":19,\"proxy\":0,\"hosting\":1340,\"service\":1218}"},"geometry":{"type":"Point","coordinates":[-3.70256,40.4165]}},{"type":"Feature","properties":{"country_code":"BGR","city":"Sofia","geoname_id":"727011","downloaders":"{\"size\":59004,\"mobile\":8215,\"satellite\":38,\"tor\":0,\"tor_exit_nodes\":0,\"vpn\":2842,\"relay\":8,\"proxy\":1,\"hosting\":6393,\"service\":1318}","uploaders":"{\"size\":724,\"mobile\":133,\"satellite\":2,\"tor\":0,\"tor_exit_nodes\":0,\"vpn\":166,\"relay\":2,\"proxy\":0,\"hosting\":231,\"service\":158}"},"geometry":{"type":"Point","coordinates":[23.32415,42.69751]}},{"type":"Feature","properties":{"country_code":"KOR","city":"Incheon","geoname_id":"1843564","downloaders":"{\"size\":57759,\"mobile\":10,\"satellite\":0,\"tor\":0,\"tor_exit_nodes\":0,\"vpn\":798,\"relay\":0,\"proxy\":0,\"hosting\":407,\"service\":164}","uploaders":"{\"size\":214,\"mobile\":0,\"satellite\":0,\"tor\":0,\"tor_exit_nodes\":0,\"vpn\":0,\"relay\":0,\"proxy\":0,\"hosting\":8,\"service\":0}"},"geometry":{"type":"Point","coordinates":[126.70515,37.45646]}},{"type":"Feature","properties":{"country_code":"TUR","city":"Ankara","geoname_id":"323786","downloaders":"{\"size\":55179,\"mobile\":2957,\"satellite\":1,\"tor\":0,\"tor_exit_nodes\":0,\"vpn\":17,\"relay\":0,\"proxy\":0,\"hosting\":4,\"service\":0}","uploaders":"{\"size\":107,\"mobile\":6,\"satellite\":0,\"tor\":0,\"tor_exit_nodes\":0,\"vpn\":0,\"relay\":0,\"proxy\":0,\"hosting\":0,\"service\":0}"},"geometry":{"type":"Point","coordinates":[32.85427,39.91987]}},{"type":"Feature","properties":{"country_code":"BEL","city":"Brussels","geoname_id":"2800866","downloaders":"{\"size\":54022,\"mobile\":690,\"satellite\":0,\"tor\":0,\"tor_exit_nodes\":2,\"vpn\":1606,\"relay\":8,\"proxy\":0,\"hosting\":925,\"service\":1465}","uploaders":"{\"size\":1176,\"mobile\":115,\"satellite\":0,\"tor\":0,\"tor_exit_nodes\":0,\"vpn\":249,\"relay\":0,\"proxy\":0,\"hosting\":182,\"service\":236}"},"geometry":{"type":"Point","coordinates":[4.34878,50.85045]}},{"type":"Feature","properties":{"country_code":"RUS","city":"Nizhniy Novgorod","geoname_id":"520555","downloaders":"{\"size\":48466,\"mobile\":8868,\"satellite\":0,\"tor\":0,\"tor_exit_nodes\":0,\"vpn\":541,\"relay\":0,\"proxy\":0,\"hosting\":19,\"service\":34}","uploaders":"{\"size\":68,\"mobile\":25,\"satellite\":0,\"tor\":0,\"tor_exit_nodes\":0,\"vpn\":0,\"relay\":0,\"proxy\":0,\"hosting\":0,\"service\":0}"},"geometry":{"type":"Point","coordinates":[44.00205,56.32867]}},{"type":"Feature","properties":{"country_code":"RUS","city":"Krasnodar","geoname_id":"542420","downloaders":"{\"size\":46431,\"mobile\":8242,\"satellite\":0,\"tor\":0,\"tor_exit_nodes\":0,\"vpn\":1141,\"relay\":0,\"proxy\":0,\"hosting\":2893,\"service\":721}","uploaders":"{\"size\":206,\"mobile\":95,\"satellite\":0,\"tor\":0,\"tor_exit_nodes\":0,\"vpn\":1,\"relay\":0,\"proxy\":0,\"hosting\":9,\"service\":1}"},"geometry":{"type":"Point","coordinates":[38.97603,45.04484]}},{"type":"Feature","properties":{"country_code":"NLD","city":"Lelystad","geoname_id":"2751738","downloaders":"{\"size\":46347,\"mobile\":1,\"satellite\":0,\"tor\":44,\"tor_exit_nodes\":18,\"vpn\":6218,\"relay\":0,\"proxy\":0,\"hosting\":44838,\"service\":2428}","uploaders":"{\"size\":837,\"mobile\":0,\"satellite\":0,\"tor\":3,\"tor_exit_nodes\":4,\"vpn\":222,\"relay\":0,\"proxy\":0,\"hosting\":791,\"service\":191}"},"geometry":{"type":"Point","coordinates":[5.475,52.50833]}},{"type":"Feature","properties":{"country_code":"USA","city":"New York City","geoname_id":"5128581","downloaders":"{\"size\":46194,\"mobile\":1076,\"satellite\":7,\"tor\":4,\"tor_exit_nodes\":25,\"vpn\":16281,\"relay\":192,\"proxy\":1,\"hosting\":20009,\"service\":15375}","uploaders":"{\"size\":3323,\"mobile\":86,\"satellite\":0,\"tor\":0,\"tor_exit_nodes\":0,\"vpn\":2345,\"relay\":35,\"proxy\":0,\"hosting\":2706,\"service\":2209}"},"geometry":{"type":"Point","coordinates":[-74.00597,40.71427]}},{"type":"Feature","properties":{"country_code":"RUS","city":"Samara","geoname_id":"499099","downloaders":"{\"size\":44059,\"mobile\":4267,\"satellite\":0,\"tor\":0,\"tor_exit_nodes\":0,\"vpn\":798,\"relay\":0,\"proxy\":0,\"hosting\":10,\"service\":360}","uploaders":"{\"size\":65,\"mobile\":17,\"satellite\":0,\"tor\":0,\"tor_exit_nodes\":0,\"vpn\":5,\"relay\":0,\"proxy\":0,\"hosting\":1,\"service\":3}"},"geometry":{"type":"Point","coordinates":[50.15,53.20007]}},{"type":"Feature","properties":{"country_code":"CAN","city":"Toronto","geoname_id":"6167865","downloaders":"{\"size\":42982,\"mobile\":2226,\"satellite\":41,\"tor\":41,\"tor_exit_nodes\":328,\"vpn\":15638,\"relay\":129,\"proxy\":55,\"hosting\":21969,\"service\":14803}","uploaders":"{\"size\":3560,\"mobile\":136,\"satellite\":5,\"tor\":9,\"tor_exit_nodes\":43,\"vpn\":2092,\"relay\":22,\"proxy\":0,\"hosting\":2469,\"service\":1998}"},"geometry":{"type":"Point","coordinates":[-79.39864,43.70643]}},{"type":"Feature","properties":{"country_code":"CHN","city":"Nanjing","geoname_id":"1799962","downloaders":"{\"size\":41670,\"mobile\":0,\"satellite\":0,\"tor\":0,\"tor_exit_nodes\":0,\"vpn\":729,\"relay\":0,\"proxy\":0,\"hosting\":617,\"service\":0}","uploaders":"{\"size\":456,\"mobile\":0,\"satellite\":0,\"tor\":0,\"tor_exit_nodes\":0,\"vpn\":4,\"relay\":0,\"proxy\":0,\"hosting\":34,\"service\":0}"},"geometry":{"type":"Point","coordinates":[118.77778,32.06167]}},{"type":"Feature","properties":{"country_code":"CHN","city":"Qingdao","geoname_id":"1797929","downloaders":"{\"size\":41119,\"mobile\":0,\"satellite\":0,\"tor\":0,\"tor_exit_nodes\":0,\"vpn\":412,\"relay\":0,\"proxy\":0,\"hosting\":374,\"service\":0}","uploaders":"{\"size\":252,\"mobile\":0,\"satellite\":0,\"tor\":0,\"tor_exit_nodes\":0,\"vpn\":2,\"relay\":0,\"proxy\":0,\"hosting\":1,\"service\":0}"},"geometry":{"type":"Point","coordinates":[120.38042,36.06488]}},{"type":"Feature","properties":{"country_code":"RUS","city":"Chelyabinsk","geoname_id":"1508291","downloaders":"{\"size\":40520,\"mobile\":2551,\"satellite\":0,\"tor\":0,\"tor_exit_nodes\":0,\"vpn\":189,\"relay\":0,\"proxy\":0,\"hosting\":13,\"service\":25}","uploaders":"{\"size\":76,\"mobile\":16,\"satellite\":0,\"tor\":0,\"tor_exit_nodes\":0,\"vpn\":1,\"relay\":0,\"proxy\":0,\"hosting\":1,\"service\":1}"},"geometry":{"type":"Point","coordinates":[61.42915,55.15402]}},{"type":"Feature","properties":{"country_code":"UKR","city":"Kyiv","geoname_id":"703448","downloaders":"{\"size\":39716,\"mobile\":176,\"satellite\":101,\"tor\":1,\"tor_exit_nodes\":1,\"vpn\":1085,\"relay\":0,\"proxy\":0,\"hosting\":6375,\"service\":339}","uploaders":"{\"size\":631,\"mobile\":12,\"satellite\":12,\"tor\":1,\"tor_exit_nodes\":1,\"vpn\":36,\"relay\":0,\"proxy\":0,\"hosting\":205,\"service\":30}"},"geometry":{"type":"Point","coordinates":[30.5238,50.45466]}},{"type":"Feature","properties":{"country_code":"CHN","city":"Shenzhen","geoname_id":"1795565","downloaders":"{\"size\":39640,\"mobile\":208,\"satellite\":0,\"tor\":0,\"tor_exit_nodes\":0,\"vpn\":894,\"relay\":0,\"proxy\":0,\"hosting\":971,\"service\":0}","uploaders":"{\"size\":989,\"mobile\":18,\"satellite\":0,\"tor\":0,\"tor_exit_nodes\":0,\"vpn\":11,\"relay\":0,\"proxy\":0,\"hosting\":75,\"service\":0}"},"geometry":{"type":"Point","coordinates":[114.0683,22.54554]}},{"type":"Feature","properties":{"country_code":"CAN","city":"Montréal","geoname_id":"6077243","downloaders":"{\"size\":38839,\"mobile\":2543,\"satellite\":2,\"tor\":2,\"tor_exit_nodes\":11,\"vpn\":9743,\"relay\":0,\"proxy\":0,\"hosting\":17068,\"service\":9496}","uploaders":"{\"size\":2037,\"mobile\":51,\"satellite\":0,\"tor\":0,\"tor_exit_nodes\":0,\"vpn\":1157,\"relay\":0,\"proxy\":0,\"hosting\":1302,\"service\":1156}"},"geometry":{"type":"Point","coordinates":[-73.58781,45.50884]}},{"type":"Feature","properties":{"country_code":"RUS","city":"Voronezh","geoname_id":"472045","downloaders":"{\"size\":38078,\"mobile\":392,\"satellite\":0,\"tor\":0,\"tor_exit_nodes\":0,\"vpn\":481,\"relay\":0,\"proxy\":1,\"hosting\":377,\"service\":19}","uploaders":"{\"size\":117,\"mobile\":10,\"satellite\":0,\"tor\":0,\"tor_exit_nodes\":0,\"vpn\":0,\"relay\":0,\"proxy\":0,\"hosting\":7,\"service\":0}"},"geometry":{"type":"Point","coordinates":[39.1843,51.67204]}},{"type":"Feature","properties":{"country_code":"FIN","city":"Helsinki","geoname_id":"658225","downloaders":"{\"size\":37629,\"mobile\":801,\"satellite\":0,\"tor\":3,\"tor_exit_nodes\":7,\"vpn\":4053,\"relay\":3,\"proxy\":0,\"hosting\":31363,\"service\":2438}","uploaders":"{\"size\":615,\"mobile\":75,\"satellite\":0,\"tor\":2,\"tor_exit_nodes\":2,\"vpn\":389,\"relay\":0,\"proxy\":0,\"hosting\":461,\"service\":336}"},"geometry":{"type":"Point","coordinates":[24.93545,60.16952]}},{"type":"Feature","properties":{"country_code":"DEU","city":"Frankfurt am Main","geoname_id":"2925533","downloaders":"{\"size\":37426,\"mobile\":709,\"satellite\":2,\"tor\":0,\"tor_exit_nodes\":75,\"vpn\":8477,\"relay\":6,\"proxy\":3,\"hosting\":28739,\"service\":7843}","uploaders":"{\"size\":1833,\"mobile\":1,\"satellite\":0,\"tor\":0,\"tor_exit_nodes\":7,\"vpn\":911,\"relay\":0,\"proxy\":0,\"hosting\":1727,\"service\":865}"},"geometry":{"type":"Point","coordinates":[8.68417,50.11552]}},{"type":"Feature","properties":{"country_code":"RUS","city":"Ufa","geoname_id":"479561","downloaders":"{\"size\":35697,\"mobile\":841,\"satellite\":0,\"tor\":0,\"tor_exit_nodes\":0,\"vpn\":276,\"relay\":0,\"proxy\":0,\"hosting\":0,\"service\":67}","uploaders":"{\"size\":69,\"mobile\":2,\"satellite\":0,\"tor\":0,\"tor_exit_nodes\":0,\"vpn\":2,\"relay\":0,\"proxy\":0,\"hosting\":0,\"service\":2}"},"geometry":{"type":"Point","coordinates":[55.96779,54.74306]}},{"type":"Feature","properties":{"country_code":"KOR","city":"Busan","geoname_id":"1838524","downloaders":"{\"size\":35308,\"mobile\":69,\"satellite\":0,\"tor\":0,\"tor_exit_nodes\":0,\"vpn\":210,\"relay\":0,\"proxy\":0,\"hosting\":3,\"service\":59}","uploaders":"{\"size\":172,\"mobile\":3,\"satellite\":0,\"tor\":0,\"tor_exit_nodes\":0,\"vpn\":1,\"relay\":0,\"proxy\":0,\"hosting\":0,\"service\":0}"},"geometry":{"type":"Point","coordinates":[129.03004,35.10168]}},{"type":"Feature","properties":{"country_code":"TUR","city":"İzmir","geoname_id":"311046","downloaders":"{\"size\":35257,\"mobile\":7189,\"satellite\":0,\"tor\":0,\"tor_exit_nodes\":0,\"vpn\":14,\"relay\":0,\"proxy\":0,\"hosting\":1,\"service\":0}","uploaders":"{\"size\":58,\"mobile\":5,\"satellite\":0,\"tor\":0,\"tor_exit_nodes\":0,\"vpn\":0,\"relay\":0,\"proxy\":0,\"hosting\":0,\"service\":0}"},"geometry":{"type":"Point","coordinates":[27.13838,38.41273]}},{"type":"Feature","properties":{"country_code":"CHN","city":"Beijing","geoname_id":"1816670","downloaders":"{\"size\":34114,\"mobile\":0,\"satellite\":0,\"tor\":0,\"tor_exit_nodes\":0,\"vpn\":560,\"relay\":0,\"proxy\":0,\"hosting\":5894,\"service\":0}","uploaders":"{\"size\":897,\"mobile\":0,\"satellite\":0,\"tor\":0,\"tor_exit_nodes\":0,\"vpn\":11,\"relay\":0,\"proxy\":0,\"hosting\":357,\"service\":0}"},"geometry":{"type":"Point","coordinates":[116.39723,39.9075]}},{"type":"Feature","properties":{"country_code":"RUS","city":"Perm","geoname_id":"511196","downloaders":"{\"size\":33717,\"mobile\":1758,\"satellite\":0,\"tor\":0,\"tor_exit_nodes\":0,\"vpn\":327,\"relay\":0,\"proxy\":0,\"hosting\":11,\"service\":4}","uploaders":"{\"size\":93,\"mobile\":14,\"satellite\":0,\"tor\":0,\"tor_exit_nodes\":0,\"vpn\":0,\"relay\":0,\"proxy\":0,\"hosting\":0,\"service\":0}"},"geometry":{"type":"Point","coordinates":[56.25017,58.01046]}},{"type":"Feature","properties":{"country_code":"DEU","city":"Falkenstein","geoname_id":"2927913","downloaders":"{\"size\":32349,\"mobile\":0,\"satellite\":0,\"tor\":0,\"tor_exit_nodes\":0,\"vpn\":4,\"relay\":0,\"proxy\":0,\"hosting\":32348,\"service\":4}","uploaders":"{\"size\":376,\"mobile\":0,\"satellite\":0,\"tor\":0,\"tor_exit_nodes\":0,\"vpn\":0,\"relay\":0,\"proxy\":0,\"hosting\":376,\"service\":0}"},"geometry":{"type":"Point","coordinates":[12.37129,50.47788]}},{"type":"Feature","properties":{"country_code":"FRA","city":"Dunkerque","geoname_id":"3020686","downloaders":"{\"size\":31154,\"mobile\":476,\"satellite\":0,\"tor\":0,\"tor_exit_nodes\":0,\"vpn\":607,\"relay\":0,\"proxy\":0,\"hosting\":29752,\"service\":174}","uploaders":"{\"size\":364,\"mobile\":2,\"satellite\":0,\"tor\":0,\"tor_exit_nodes\":0,\"vpn\":1,\"relay\":0,\"proxy\":0,\"hosting\":362,\"service\":0}"},"geometry":{"type":"Point","coordinates":[2.37681,51.0344]}},{"type":"Feature","properties":{"country_code":"AUS","city":"Sydney","geoname_id":"2147714","downloaders":"{\"size\":31045,\"mobile\":3499,\"satellite\":243,\"tor\":0,\"tor_exit_nodes\":0,\"vpn\":9581,\"relay\":49,\"proxy\":0,\"hosting\":11257,\"service\":8986}","uploaders":"{\"size\":4448,\"mobile\":588,\"satellite\":65,\"tor\":0,\"tor_exit_nodes\":0,\"vpn\":1662,\"relay\":5,\"proxy\":0,\"hosting\":1813,\"service\":1623}"},"geometry":{"type":"Point","coordinates":[151.20732,-33.86785]}},{"type":"Feature","properties":{"country_code":"RUS","city":"Rostov-na-Donu","geoname_id":"501175","downloaders":"{\"size\":30899,\"mobile\":813,\"satellite\":0,\"tor\":0,\"tor_exit_nodes\":0,\"vpn\":644,\"relay\":0,\"proxy\":8,\"hosting\":0,\"service\":27}","uploaders":"{\"size\":92,\"mobile\":20,\"satellite\":0,\"tor\":0,\"tor_exit_nodes\":0,\"vpn\":1,\"relay\":0,\"proxy\":0,\"hosting\":0,\"service\":0}"},"geometry":{"type":"Point","coordinates":[39.72328,47.23135]}},{"type":"Feature","properties":{"country_code":"RUS","city":"Tyumen","geoname_id":"1488754","downloaders":"{\"size\":30608,\"mobile\":4922,\"satellite\":0,\"tor\":0,\"tor_exit_nodes\":0,\"vpn\":163,\"relay\":0,\"proxy\":0,\"hosting\":0,\"service\":10}","uploaders":"{\"size\":24,\"mobile\":5,\"satellite\":0,\"tor\":0,\"tor_exit_nodes\":0,\"vpn\":0,\"relay\":0,\"proxy\":0,\"hosting\":0,\"service\":0}"},"geometry":{"type":"Point","coordinates":[65.52722,57.15222]}},{"type":"Feature","properties":{"country_code":"RUS","city":"Omsk","geoname_id":"1496153","downloaders":"{\"size\":30379,\"mobile\":51,\"satellite\":0,\"tor\":0,\"tor_exit_nodes\":0,\"vpn\":93,\"relay\":0,\"proxy\":2,\"hosting\":4,\"service\":54}","uploaders":"{\"size\":83,\"mobile\":0,\"satellite\":0,\"tor\":0,\"tor_exit_nodes\":0,\"vpn\":0,\"relay\":0,\"proxy\":0,\"hosting\":0,\"service\":0}"},"geometry":{"type":"Point","coordinates":[73.36859,54.99244]}},{"type":"Feature","properties":{"country_code":"RUS","city":"Krasnoyarsk","geoname_id":"1502026","downloaders":"{\"size\":30344,\"mobile\":2139,\"satellite\":2,\"tor\":0,\"tor_exit_nodes\":0,\"vpn\":133,\"relay\":0,\"proxy\":0,\"hosting\":107,\"service\":61}","uploaders":"{\"size\":57,\"mobile\":9,\"satellite\":0,\"tor\":0,\"tor_exit_nodes\":0,\"vpn\":0,\"relay\":0,\"proxy\":0,\"hosting\":0,\"service\":0}"},"geometry":{"type":"Point","coordinates":[92.90765,56.02668]}},{"type":"Feature","properties":{"country_code":"RUS","city":"Tomsk","geoname_id":"1489425","downloaders":"{\"size\":30114,\"mobile\":19,\"satellite\":0,\"tor\":0,\"tor_exit_nodes\":0,\"vpn\":99,\"relay\":0,\"proxy\":0,\"hosting\":20,\"service\":16}","uploaders":"{\"size\":19,\"mobile\":0,\"satellite\":0,\"tor\":0,\"tor_exit_nodes\":0,\"vpn\":1,\"relay\":0,\"proxy\":0,\"hosting\":0,\"service\":0}"},"geometry":{"type":"Point","coordinates":[84.98204,56.50032]}},{"type":"Feature","properties":{"country_code":"POL","city":"Ursynów","geoname_id":"6545326","downloaders":"{\"size\":29894,\"mobile\":0,\"satellite\":0,\"tor\":0,\"tor_exit_nodes\":0,\"vpn\":171,\"relay\":0,\"proxy\":1,\"hosting\":171,\"service\":171}","uploaders":"{\"size\":125,\"mobile\":0,\"satellite\":0,\"tor\":0,\"tor_exit_nodes\":0,\"vpn\":24,\"relay\":0,\"proxy\":0,\"hosting\":24,\"service\":24}"},"geometry":{"type":"Point","coordinates":[21.0068,52.1552]}},{"type":"Feature","properties":{"country_code":"TUR","city":"Bursa","geoname_id":"750269","downloaders":"{\"size\":29436,\"mobile\":2536,\"satellite\":0,\"tor\":0,\"tor_exit_nodes\":0,\"vpn\":4,\"relay\":0,\"proxy\":0,\"hosting\":168,\"service\":2}","uploaders":"{\"size\":31,\"mobile\":4,\"satellite\":0,\"tor\":0,\"tor_exit_nodes\":0,\"vpn\":0,\"relay\":0,\"proxy\":0,\"hosting\":4,\"service\":0}"},"geometry":{"type":"Point","coordinates":[29.06013,40.19559]}},{"type":"Feature","properties":{"country_code":"KOR","city":"Daegu","geoname_id":"1835329","downloaders":"{\"size\":29192,\"mobile\":128,\"satellite\":0,\"tor\":0,\"tor_exit_nodes\":0,\"vpn\":333,\"relay\":0,\"proxy\":0,\"hosting\":618,\"service\":86}","uploaders":"{\"size\":143,\"mobile\":24,\"satellite\":0,\"tor\":0,\"tor_exit_nodes\":0,\"vpn\":0,\"relay\":0,\"proxy\":0,\"hosting\":1,\"service\":0}"},"geometry":{"type":"Point","coordinates":[128.59111,35.87028]}},{"type":"Feature","properties":{"country_code":"HKG","city":"Hong Kong","geoname_id":"1819729","downloaders":"{\"size\":28721,\"mobile\":240,\"satellite\":1,\"tor\":0,\"tor_exit_nodes\":0,\"vpn\":1820,\"relay\":0,\"proxy\":0,\"hosting\":4841,\"service\":1113}","uploaders":"{\"size\":942,\"mobile\":33,\"satellite\":1,\"tor\":0,\"tor_exit_nodes\":0,\"vpn\":175,\"relay\":0,\"proxy\":0,\"hosting\":441,\"service\":167}"},"geometry":{"type":"Point","coordinates":[114.17469,22.27832]}},{"type":"Feature","properties":{"country_code":"RUS","city":"Barnaul","geoname_id":"1510853","downloaders":"{\"size\":27656,\"mobile\":15,\"satellite\":0,\"tor\":0,\"tor_exit_nodes\":0,\"vpn\":64,\"relay\":0,\"proxy\":0,\"hosting\":0,\"service\":26}","uploaders":"{\"size\":44,\"mobile\":0,\"satellite\":0,\"tor\":0,\"tor_exit_nodes\":0,\"vpn\":0,\"relay\":0,\"proxy\":0,\"hosting\":0,\"service\":0}"},"geometry":{"type":"Point","coordinates":[83.7456,53.3598]}},{"type":"Feature","properties":{"country_code":"RUS","city":"Saratov","geoname_id":"498677","downloaders":"{\"size\":27287,\"mobile\":456,\"satellite\":0,\"tor\":0,\"tor_exit_nodes\":0,\"vpn\":240,\"relay\":0,\"proxy\":0,\"hosting\":1,\"service\":12}","uploaders":"{\"size\":41,\"mobile\":3,\"satellite\":0,\"tor\":0,\"tor_exit_nodes\":0,\"vpn\":2,\"relay\":0,\"proxy\":0,\"hosting\":0,\"service\":0}"},"geometry":{"type":"Point","coordinates":[46.00861,51.54056]}},{"type":"Feature","properties":{"country_code":"KOR","city":"Suwon","geoname_id":"1835553","downloaders":"{\"size\":26340,\"mobile\":31,\"satellite\":0,\"tor\":0,\"tor_exit_nodes\":0,\"vpn\":370,\"relay\":0,\"proxy\":0,\"hosting\":1,\"service\":31}","uploaders":"{\"size\":89,\"mobile\":0,\"satellite\":0,\"tor\":0,\"tor_exit_nodes\":0,\"vpn\":0,\"relay\":0,\"proxy\":0,\"hosting\":0,\"service\":0}"},"geometry":{"type":"Point","coordinates":[127.00889,37.29111]}},{"type":"Feature","properties":{"country_code":"MEX","city":"Guadalajara","geoname_id":"4005539","downloaders":"{\"size\":26211,\"mobile\":46,\"satellite\":0,\"tor\":0,\"tor_exit_nodes\":0,\"vpn\":13,\"relay\":0,\"proxy\":0,\"hosting\":0,\"service\":0}","uploaders":"{\"size\":49,\"mobile\":2,\"satellite\":0,\"tor\":0,\"tor_exit_nodes\":0,\"vpn\":0,\"relay\":0,\"proxy\":0,\"hosting\":0,\"service\":0}"},"geometry":{"type":"Point","coordinates":[-103.34749,20.67738]}},{"type":"Feature","properties":{"country_code":"BRA","city":"Rio de Janeiro","geoname_id":"3451190","downloaders":"{\"size\":25623,\"mobile\":1428,\"satellite\":0,\"tor\":0,\"tor_exit_nodes\":0,\"vpn\":46,\"relay\":0,\"proxy\":0,\"hosting\":216,\"service\":0}","uploaders":"{\"size\":200,\"mobile\":17,\"satellite\":0,\"tor\":0,\"tor_exit_nodes\":0,\"vpn\":0,\"relay\":0,\"proxy\":0,\"hosting\":0,\"service\":0}"},"geometry":{"type":"Point","coordinates":[-43.18223,-22.90642]}},{"type":"Feature","properties":{"country_code":"ITA","city":"Milan","geoname_id":"3173435","downloaders":"{\"size\":25219,\"mobile\":5666,\"satellite\":49,\"tor\":0,\"tor_exit_nodes\":4,\"vpn\":1545,\"relay\":10,\"proxy\":2,\"hosting\":2335,\"service\":1379}","uploaders":"{\"size\":991,\"mobile\":256,\"satellite\":17,\"tor\":0,\"tor_exit_nodes\":0,\"vpn\":200,\"relay\":3,\"proxy\":0,\"hosting\":236,\"service\":200}"},"geometry":{"type":"Point","coordinates":[9.18951,45.46427]}},{"type":"Feature","properties":{"country_code":"JPN","city":"Tokyo","geoname_id":"1850147","downloaders":"{\"size\":24901,\"mobile\":1173,\"satellite\":6,\"tor\":0,\"tor_exit_nodes\":0,\"vpn\":3431,\"relay\":29,\"proxy\":4,\"hosting\":6903,\"service\":3056}","uploaders":"{\"size\":366,\"mobile\":17,\"satellite\":0,\"tor\":0,\"tor_exit_nodes\":0,\"vpn\":197,\"relay\":0,\"proxy\":3,\"hosting\":252,\"service\":191}"},"geometry":{"type":"Point","coordinates":[139.69171,35.6895]}},{"type":"Feature","properties":{"country_code":"USA","city":"Los Angeles","geoname_id":"5368361","downloaders":"{\"size\":24661,\"mobile\":392,\"satellite\":40,\"tor\":0,\"tor_exit_nodes\":1,\"vpn\":11821,\"relay\":0,\"proxy\":138,\"hosting\":17171,\"service\":10968}","uploaders":"{\"size\":3383,\"mobile\":82,\"satellite\":5,\"tor\":0,\"tor_exit_nodes\":0,\"vpn\":2042,\"relay\":0,\"proxy\":20,\"hosting\":2899,\"service\":1925}"},"geometry":{"type":"Point","coordinates":[-118.24368,34.05223]}},{"type":"Feature","properties":{"country_code":"RUS","city":"Kemerovo","geoname_id":"1503901","downloaders":"{\"size\":24539,\"mobile\":5,\"satellite\":0,\"tor\":0,\"tor_exit_nodes\":0,\"vpn\":183,\"relay\":0,\"proxy\":0,\"hosting\":33,\"service\":0}","uploaders":"{\"size\":14,\"mobile\":0,\"satellite\":0,\"tor\":0,\"tor_exit_nodes\":0,\"vpn\":0,\"relay\":0,\"proxy\":0,\"hosting\":0,\"service\":0}"},"geometry":{"type":"Point","coordinates":[86.08333,55.33333]}},{"type":"Feature","properties":{"country_code":"BLR","city":"Minsk","geoname_id":"625144","downloaders":"{\"size\":24377,\"mobile\":241,\"satellite\":0,\"tor\":0,\"tor_exit_nodes\":0,\"vpn\":477,\"relay\":0,\"proxy\":0,\"hosting\":828,\"service\":40}","uploaders":"{\"size\":116,\"mobile\":0,\"satellite\":0,\"tor\":0,\"tor_exit_nodes\":0,\"vpn\":3,\"relay\":0,\"proxy\":0,\"hosting\":2,\"service\":0}"},"geometry":{"type":"Point","coordinates":[27.56653,53.90019]}},{"type":"Feature","properties":{"country_code":"ARG","city":"Buenos Aires","geoname_id":"3435910","downloaders":"{\"size\":24111,\"mobile\":3290,\"satellite\":12,\"tor\":0,\"tor_exit_nodes\":0,\"vpn\":170,\"relay\":38,\"proxy\":0,\"hosting\":427,\"service\":125}","uploaders":"{\"size\":610,\"mobile\":66,\"satellite\":0,\"tor\":0,\"tor_exit_nodes\":0,\"vpn\":30,\"relay\":2,\"proxy\":0,\"hosting\":79,\"service\":16}"},"geometry":{"type":"Point","coordinates":[-58.37723,-34.61315]}},{"type":"Feature","properties":{"country_code":"ZAF","city":"Johannesburg","geoname_id":"993800","downloaders":"{\"size\":24049,\"mobile\":10449,\"satellite\":0,\"tor\":0,\"tor_exit_nodes\":0,\"vpn\":581,\"relay\":0,\"proxy\":6,\"hosting\":3396,\"service\":430}","uploaders":"{\"size\":8324,\"mobile\":4019,\"satellite\":0,\"tor\":0,\"tor_exit_nodes\":0,\"vpn\":131,\"relay\":0,\"proxy\":1,\"hosting\":907,\"service\":93}"},"geometry":{"type":"Point","coordinates":[28.04363,-26.20227]}},{"type":"Feature","properties":{"country_code":"ESP","city":"Barcelona","geoname_id":"3128760","downloaders":"{\"size\":23858,\"mobile\":8321,\"satellite\":0,\"tor\":0,\"tor_exit_nodes\":0,\"vpn\":1047,\"relay\":0,\"proxy\":0,\"hosting\":1034,\"service\":1009}","uploaders":"{\"size\":2411,\"mobile\":783,\"satellite\":0,\"tor\":0,\"tor_exit_nodes\":0,\"vpn\":173,\"relay\":0,\"proxy\":0,\"hosting\":178,\"service\":173}"},"geometry":{"type":"Point","coordinates":[2.15899,41.38879]}},{"type":"Feature","properties":{"country_code":"CHN","city":"Zhengzhou","geoname_id":"1784658","downloaders":"{\"size\":23555,\"mobile\":0,\"satellite\":0,\"tor\":0,\"tor_exit_nodes\":0,\"vpn\":216,\"relay\":0,\"proxy\":0,\"hosting\":33,\"service\":3}","uploaders":"{\"size\":257,\"mobile\":0,\"satellite\":0,\"tor\":0,\"tor_exit_nodes\":0,\"vpn\":10,\"relay\":0,\"proxy\":0,\"hosting\":0,\"service\":0}"},"geometry":{"type":"Point","coordinates":[113.64861,34.75778]}},{"type":"Feature","properties":{"country_code":"KEN","city":"Nairobi","geoname_id":"184745","downloaders":"{\"size\":23250,\"mobile\":11556,\"satellite\":41,\"tor\":0,\"tor_exit_nodes\":0,\"vpn\":191,\"relay\":4,\"proxy\":0,\"hosting\":496,\"service\":32}","uploaders":"{\"size\":7954,\"mobile\":4095,\"satellite\":16,\"tor\":0,\"tor_exit_nodes\":0,\"vpn\":48,\"relay\":2,\"proxy\":0,\"hosting\":125,\"service\":6}"},"geometry":{"type":"Point","coordinates":[36.81667,-1.28333]}},{"type":"Feature","properties":{"country_code":"RUS","city":"Kazan","geoname_id":"551487","downloaders":"{\"size\":22509,\"mobile\":2397,\"satellite\":0,\"tor\":0,\"tor_exit_nodes\":0,\"vpn\":389,\"relay\":0,\"proxy\":0,\"hosting\":71,\"service\":0}","uploaders":"{\"size\":70,\"mobile\":6,\"satellite\":0,\"tor\":0,\"tor_exit_nodes\":0,\"vpn\":0,\"relay\":0,\"proxy\":0,\"hosting\":1,\"service\":0}"},"geometry":{"type":"Point","coordinates":[49.12214,55.78874]}},{"type":"Feature","properties":{"country_code":"LVA","city":"Riga","geoname_id":"456172","downloaders":"{\"size\":22091,\"mobile\":326,\"satellite\":0,\"tor\":0,\"tor_exit_nodes\":0,\"vpn\":922,\"relay\":0,\"proxy\":0,\"hosting\":1648,\"service\":600}","uploaders":"{\"size\":354,\"mobile\":21,\"satellite\":0,\"tor\":0,\"tor_exit_nodes\":0,\"vpn\":139,\"relay\":0,\"proxy\":0,\"hosting\":168,\"service\":134}"},"geometry":{"type":"Point","coordinates":[24.10589,56.946]}},{"type":"Feature","properties":{"country_code":"SWE","city":"Stockholm","geoname_id":"2673730","downloaders":"{\"size\":21628,\"mobile\":866,\"satellite\":4,\"tor\":12,\"tor_exit_nodes\":21,\"vpn\":7897,\"relay\":7,\"proxy\":0,\"hosting\":6139,\"service\":7420}","uploaders":"{\"size\":1470,\"mobile\":57,\"satellite\":0,\"tor\":0,\"tor_exit_nodes\":0,\"vpn\":1056,\"relay\":0,\"proxy\":0,\"hosting\":916,\"service\":1036}"},"geometry":{"type":"Point","coordinates":[18.06871,59.32938]}},{"type":"Feature","properties":{"country_code":"RUS","city":"Volgograd","geoname_id":"472757","downloaders":"{\"size\":21245,\"mobile\":1060,\"satellite\":0,\"tor\":0,\"tor_exit_nodes\":0,\"vpn\":247,\"relay\":0,\"proxy\":0,\"hosting\":0,\"service\":6}","uploaders":"{\"size\":82,\"mobile\":15,\"satellite\":0,\"tor\":0,\"tor_exit_nodes\":0,\"vpn\":0,\"relay\":0,\"proxy\":0,\"hosting\":0,\"service\":0}"},"geometry":{"type":"Point","coordinates":[44.50183,48.71939]}},{"type":"Feature","properties":{"country_code":"RUS","city":"Tula","geoname_id":"480562","downloaders":"{\"size\":21063,\"mobile\":4033,\"satellite\":0,\"tor\":0,\"tor_exit_nodes\":0,\"vpn\":149,\"relay\":0,\"proxy\":0,\"hosting\":245,\"service\":10}","uploaders":"{\"size\":20,\"mobile\":4,\"satellite\":0,\"tor\":0,\"tor_exit_nodes\":0,\"vpn\":0,\"relay\":0,\"proxy\":0,\"hosting\":1,\"service\":0}"},"geometry":{"type":"Point","coordinates":[37.61822,54.19609]}},{"type":"Feature","properties":{"country_code":"AUS","city":"Melbourne","geoname_id":"2158177","downloaders":"{\"size\":21021,\"mobile\":1583,\"satellite\":25,\"tor\":0,\"tor_exit_nodes\":0,\"vpn\":3264,\"relay\":1,\"proxy\":0,\"hosting\":4651,\"service\":2646}","uploaders":"{\"size\":3034,\"mobile\":242,\"satellite\":2,\"tor\":0,\"tor_exit_nodes\":0,\"vpn\":635,\"relay\":0,\"proxy\":0,\"hosting\":938,\"service\":543}"},"geometry":{"type":"Point","coordinates":[144.96332,-37.814]}},{"type":"Feature","properties":{"country_code":"RUS","city":"Khimki","geoname_id":"550280","downloaders":"{\"size\":20484,\"mobile\":14,\"satellite\":4,\"tor\":0,\"tor_exit_nodes\":0,\"vpn\":1452,\"relay\":0,\"proxy\":0,\"hosting\":4424,\"service\":354}","uploaders":"{\"size\":25,\"mobile\":0,\"satellite\":0,\"tor\":0,\"tor_exit_nodes\":0,\"vpn\":1,\"relay\":0,\"proxy\":0,\"hosting\":8,\"service\":0}"},"geometry":{"type":"Point","coordinates":[37.42848,55.9001]}},{"type":"Feature","properties":{"country_code":"LTU","city":"Vilnius","geoname_id":"593116","downloaders":"{\"size\":20410,\"mobile\":994,\"satellite\":0,\"tor\":0,\"tor_exit_nodes\":0,\"vpn\":409,\"relay\":0,\"proxy\":0,\"hosting\":1315,\"service\":248}","uploaders":"{\"size\":191,\"mobile\":44,\"satellite\":0,\"tor\":0,\"tor_exit_nodes\":0,\"vpn\":32,\"relay\":0,\"proxy\":0,\"hosting\":44,\"service\":32}"},"geometry":{"type":"Point","coordinates":[25.2798,54.68916]}},{"type":"Feature","properties":{"country_code":"KOR","city":"Daejeon","geoname_id":"1835235","downloaders":"{\"size\":19795,\"mobile\":7,\"satellite\":0,\"tor\":0,\"tor_exit_nodes\":0,\"vpn\":393,\"relay\":0,\"proxy\":0,\"hosting\":1,\"service\":69}","uploaders":"{\"size\":66,\"mobile\":0,\"satellite\":0,\"tor\":0,\"tor_exit_nodes\":0,\"vpn\":1,\"relay\":0,\"proxy\":0,\"hosting\":1,\"service\":1}"},"geometry":{"type":"Point","coordinates":[127.38493,36.34913]}},{"type":"Feature","properties":{"country_code":"RUS","city":"Lipetsk","geoname_id":"535121","downloaders":"{\"size\":19725,\"mobile\":2597,\"satellite\":0,\"tor\":0,\"tor_exit_nodes\":0,\"vpn\":148,\"relay\":0,\"proxy\":0,\"hosting\":0,\"service\":7}","uploaders":"{\"size\":25,\"mobile\":2,\"satellite\":0,\"tor\":0,\"tor_exit_nodes\":0,\"vpn\":0,\"relay\":0,\"proxy\":0,\"hosting\":0,\"service\":0}"},"geometry":{"type":"Point","coordinates":[39.57076,52.60311]}},{"type":"Feature","properties":{"country_code":"ITA","city":"Rome","geoname_id":"3169070","downloaders":"{\"size\":19620,\"mobile\":4552,\"satellite\":2,\"tor\":0,\"tor_exit_nodes\":0,\"vpn\":659,\"relay\":60,\"proxy\":0,\"hosting\":750,\"service\":662}","uploaders":"{\"size\":572,\"mobile\":218,\"satellite\":1,\"tor\":0,\"tor_exit_nodes\":0,\"vpn\":142,\"relay\":5,\"proxy\":0,\"hosting\":149,\"service\":147}"},"geometry":{"type":"Point","coordinates":[12.51133,41.89193]}},{"type":"Feature","properties":{"country_code":"SVN","city":"Ljubljana","geoname_id":"3196359","downloaders":"{\"size\":19537,\"mobile\":419,\"satellite\":0,\"tor\":0,\"tor_exit_nodes\":0,\"vpn\":548,\"relay\":3,\"proxy\":0,\"hosting\":278,\"service\":215}","uploaders":"{\"size\":405,\"mobile\":92,\"satellite\":0,\"tor\":0,\"tor_exit_nodes\":0,\"vpn\":32,\"relay\":0,\"proxy\":0,\"hosting\":33,\"service\":30}"},"geometry":{"type":"Point","coordinates":[14.50513,46.05108]}},{"type":"Feature","properties":{"country_code":"POL","city":"Poznań","geoname_id":"3088171","downloaders":"{\"size\":19479,\"mobile\":707,\"satellite\":0,\"tor\":2,\"tor_exit_nodes\":2,\"vpn\":136,\"relay\":0,\"proxy\":0,\"hosting\":29,\"service\":0}","uploaders":"{\"size\":118,\"mobile\":39,\"satellite\":0,\"tor\":2,\"tor_exit_nodes\":2,\"vpn\":0,\"relay\":0,\"proxy\":0,\"hosting\":2,\"service\":0}"},"geometry":{"type":"Point","coordinates":[16.92993,52.40692]}},{"type":"Feature","properties":{"country_code":"SGP","city":"Singapore","geoname_id":"1880252","downloaders":"{\"size\":19442,\"mobile\":1281,\"satellite\":0,\"tor\":5,\"tor_exit_nodes\":5,\"vpn\":5273,\"relay\":12,\"proxy\":0,\"hosting\":11270,\"service\":5151}","uploaders":"{\"size\":2080,\"mobile\":180,\"satellite\":0,\"tor\":0,\"tor_exit_nodes\":0,\"vpn\":1101,\"relay\":7,\"proxy\":0,\"hosting\":1401,\"service\":1099}"},"geometry":{"type":"Point","coordinates":[103.85007,1.28967]}},{"type":"Feature","properties":{"country_code":"ROU","city":"Bucharest","geoname_id":"683506","downloaders":"{\"size\":19348,\"mobile\":3147,\"satellite\":0,\"tor\":13,\"tor_exit_nodes\":17,\"vpn\":1910,\"relay\":0,\"proxy\":0,\"hosting\":2132,\"service\":1631}","uploaders":"{\"size\":628,\"mobile\":108,\"satellite\":0,\"tor\":5,\"tor_exit_nodes\":5,\"vpn\":180,\"relay\":0,\"proxy\":0,\"hosting\":198,\"service\":158}"},"geometry":{"type":"Point","coordinates":[26.10626,44.43225]}},{"type":"Feature","properties":{"country_code":"KOR","city":"Hwaseong-si","geoname_id":"1843847","downloaders":"{\"size\":19136,\"mobile\":7,\"satellite\":0,\"tor\":0,\"tor_exit_nodes\":0,\"vpn\":354,\"relay\":0,\"proxy\":0,\"hosting\":0,\"service\":54}","uploaders":"{\"size\":34,\"mobile\":0,\"satellite\":0,\"tor\":0,\"tor_exit_nodes\":0,\"vpn\":0,\"relay\":0,\"proxy\":0,\"hosting\":0,\"service\":0}"},"geometry":{"type":"Point","coordinates":[126.8169,37.20682]}},{"type":"Feature","properties":{"country_code":"RUS","city":"Irkutsk","geoname_id":"2023469","downloaders":"{\"size\":18569,\"mobile\":1419,\"satellite\":0,\"tor\":0,\"tor_exit_nodes\":0,\"vpn\":9,\"relay\":0,\"proxy\":0,\"hosting\":3,\"service\":1}","uploaders":"{\"size\":42,\"mobile\":10,\"satellite\":0,\"tor\":0,\"tor_exit_nodes\":0,\"vpn\":0,\"relay\":0,\"proxy\":0,\"hosting\":0,\"service\":0}"},"geometry":{"type":"Point","coordinates":[104.29585,52.29795]}},{"type":"Feature","properties":{"country_code":"CZE","city":"Prague","geoname_id":"3067696","downloaders":"{\"size\":18447,\"mobile\":1610,\"satellite\":5,\"tor\":1,\"tor_exit_nodes\":3,\"vpn\":2585,\"relay\":1,\"proxy\":0,\"hosting\":3645,\"service\":2206}","uploaders":"{\"size\":697,\"mobile\":96,\"satellite\":0,\"tor\":0,\"tor_exit_nodes\":0,\"vpn\":346,\"relay\":0,\"proxy\":0,\"hosting\":354,\"service\":336}"},"geometry":{"type":"Point","coordinates":[14.42076,50.08804]}},{"type":"Feature","properties":{"country_code":"FRA","city":"Calais","geoname_id":"3029162","downloaders":"{\"size\":18237,\"mobile\":448,\"satellite\":0,\"tor\":11,\"tor_exit_nodes\":12,\"vpn\":501,\"relay\":0,\"proxy\":14,\"hosting\":17292,\"service\":51}","uploaders":"{\"size\":167,\"mobile\":9,\"satellite\":0,\"tor\":0,\"tor_exit_nodes\":0,\"vpn\":1,\"relay\":0,\"proxy\":0,\"hosting\":158,\"service\":0}"},"geometry":{"type":"Point","coordinates":[1.85635,50.95194]}},{"type":"Feature","properties":{"country_code":"RUS","city":"Yaroslavl","geoname_id":"468902","downloaders":"{\"size\":18109,\"mobile\":1460,\"satellite\":0,\"tor\":0,\"tor_exit_nodes\":0,\"vpn\":176,\"relay\":0,\"proxy\":0,\"hosting\":0,\"service\":0}","uploaders":"{\"size\":51,\"mobile\":8,\"satellite\":0,\"tor\":0,\"tor_exit_nodes\":0,\"vpn\":1,\"relay\":0,\"proxy\":0,\"hosting\":0,\"service\":0}"},"geometry":{"type":"Point","coordinates":[39.87368,57.62987]}},{"type":"Feature","properties":{"country_code":"IRQ","city":"Baghdad","geoname_id":"98182","downloaders":"{\"size\":17956,\"mobile\":32,\"satellite\":0,\"tor\":0,\"tor_exit_nodes\":0,\"vpn\":15,\"relay\":0,\"proxy\":0,\"hosting\":9,\"service\":0}","uploaders":"{\"size\":5,\"mobile\":2,\"satellite\":0,\"tor\":0,\"tor_exit_nodes\":0,\"vpn\":0,\"relay\":0,\"proxy\":0,\"hosting\":0,\"service\":0}"},"geometry":{"type":"Point","coordinates":[44.40088,33.34058]}},{"type":"Feature","properties":{"country_code":"KOR","city":"Seongnam-si","geoname_id":"1897000","downloaders":"{\"size\":17862,\"mobile\":16,\"satellite\":0,\"tor\":0,\"tor_exit_nodes\":0,\"vpn\":302,\"relay\":0,\"proxy\":0,\"hosting\":0,\"service\":68}","uploaders":"{\"size\":74,\"mobile\":1,\"satellite\":0,\"tor\":0,\"tor_exit_nodes\":0,\"vpn\":2,\"relay\":0,\"proxy\":0,\"hosting\":0,\"service\":1}"},"geometry":{"type":"Point","coordinates":[127.13778,37.43861]}},{"type":"Feature","properties":{"country_code":"KOR","city":"Goyang-si","geoname_id":"1842485","downloaders":"{\"size\":17649,\"mobile\":1,\"satellite\":0,\"tor\":0,\"tor_exit_nodes\":0,\"vpn\":223,\"relay\":0,\"proxy\":0,\"hosting\":0,\"service\":15}","uploaders":"{\"size\":54,\"mobile\":0,\"satellite\":0,\"tor\":0,\"tor_exit_nodes\":0,\"vpn\":0,\"relay\":0,\"proxy\":0,\"hosting\":0,\"service\":0}"},"geometry":{"type":"Point","coordinates":[126.835,37.65639]}},{"type":"Feature","properties":{"country_code":"KOR","city":"Gwangju","geoname_id":"1841811","downloaders":"{\"size\":17515,\"mobile\":0,\"satellite\":0,\"tor\":0,\"tor_exit_nodes\":0,\"vpn\":82,\"relay\":0,\"proxy\":0,\"hosting\":1,\"service\":4}","uploaders":"{\"size\":87,\"mobile\":0,\"satellite\":0,\"tor\":0,\"tor_exit_nodes\":0,\"vpn\":1,\"relay\":0,\"proxy\":0,\"hosting\":0,\"service\":0}"},"geometry":{"type":"Point","coordinates":[126.91556,35.15472]}},{"type":"Feature","properties":{"country_code":"CHL","city":"Santiago","geoname_id":"3871336","downloaders":"{\"size\":17410,\"mobile\":3410,\"satellite\":43,\"tor\":0,\"tor_exit_nodes\":0,\"vpn\":105,\"relay\":0,\"proxy\":0,\"hosting\":1278,\"service\":91}","uploaders":"{\"size\":302,\"mobile\":100,\"satellite\":7,\"tor\":0,\"tor_exit_nodes\":0,\"vpn\":13,\"relay\":0,\"proxy\":0,\"hosting\":27,\"service\":13}"},"geometry":{"type":"Point","coordinates":[-70.64827,-33.45694]}},{"type":"Feature","properties":{"country_code":"RUS","city":"Tver","geoname_id":"480060","downloaders":"{\"size\":17000,\"mobile\":260,\"satellite\":0,\"tor\":0,\"tor_exit_nodes\":0,\"vpn\":204,\"relay\":0,\"proxy\":0,\"hosting\":83,\"service\":45}","uploaders":"{\"size\":23,\"mobile\":4,\"satellite\":0,\"tor\":0,\"tor_exit_nodes\":0,\"vpn\":0,\"relay\":0,\"proxy\":0,\"hosting\":0,\"service\":0}"},"geometry":{"type":"Point","coordinates":[35.90057,56.85836]}},{"type":"Feature","properties":{"country_code":"RUS","city":"Balashikha","geoname_id":"579464","downloaders":"{\"size\":16949,\"mobile\":389,\"satellite\":0,\"tor\":0,\"tor_exit_nodes\":0,\"vpn\":923,\"relay\":0,\"proxy\":0,\"hosting\":767,\"service\":96}","uploaders":"{\"size\":22,\"mobile\":0,\"satellite\":0,\"tor\":0,\"tor_exit_nodes\":0,\"vpn\":3,\"relay\":0,\"proxy\":0,\"hosting\":3,\"service\":3}"},"geometry":{"type":"Point","coordinates":[37.94794,55.79479]}},{"type":"Feature","properties":{"country_code":"HRV","city":"Zagreb","geoname_id":"3186886","downloaders":"{\"size\":16908,\"mobile\":1711,\"satellite\":0,\"tor\":0,\"tor_exit_nodes\":0,\"vpn\":563,\"relay\":1,\"proxy\":0,\"hosting\":568,\"service\":511}","uploaders":"{\"size\":1735,\"mobile\":301,\"satellite\":0,\"tor\":0,\"tor_exit_nodes\":0,\"vpn\":191,\"relay\":0,\"proxy\":0,\"hosting\":195,\"service\":187}"},"geometry":{"type":"Point","coordinates":[15.97798,45.81444]}},{"type":"Feature","properties":{"country_code":"IRL","city":"Dublin","geoname_id":"2964574","downloaders":"{\"size\":16458,\"mobile\":1534,\"satellite\":1,\"tor\":0,\"tor_exit_nodes\":0,\"vpn\":1678,\"relay\":5,\"proxy\":0,\"hosting\":6294,\"service\":1607}","uploaders":"{\"size\":1450,\"mobile\":335,\"satellite\":0,\"tor\":0,\"tor_exit_nodes\":0,\"vpn\":303,\"relay\":2,\"proxy\":0,\"hosting\":484,\"service\":301}"},"geometry":{"type":"Point","coordinates":[-6.24889,53.33306]}},{"type":"Feature","properties":{"country_code":"USA","city":"Chicago","geoname_id":"4887398","downloaders":"{\"size\":16252,\"mobile\":399,\"satellite\":71,\"tor\":0,\"tor_exit_nodes\":10,\"vpn\":7472,\"relay\":4,\"proxy\":0,\"hosting\":7736,\"service\":6111}","uploaders":"{\"size\":1503,\"mobile\":57,\"satellite\":1,\"tor\":0,\"tor_exit_nodes\":0,\"vpn\":1100,\"relay\":0,\"proxy\":0,\"hosting\":1067,\"service\":969}"},"geometry":{"type":"Point","coordinates":[-87.65005,41.85003]}},{"type":"Feature","properties":{"country_code":"RUS","city":"Penza","geoname_id":"511565","downloaders":"{\"size\":16147,\"mobile\":1486,\"satellite\":0,\"tor\":0,\"tor_exit_nodes\":0,\"vpn\":119,\"relay\":0,\"proxy\":0,\"hosting\":0,\"service\":8}","uploaders":"{\"size\":107,\"mobile\":48,\"satellite\":0,\"tor\":0,\"tor_exit_nodes\":0,\"vpn\":0,\"relay\":0,\"proxy\":0,\"hosting\":0,\"service\":0}"},"geometry":{"type":"Point","coordinates":[45.00464,53.20066]}},{"type":"Feature","properties":{"country_code":"DEU","city":"Berlin","geoname_id":"2950159","downloaders":"{\"size\":16088,\"mobile\":5261,\"satellite\":189,\"tor\":280,\"tor_exit_nodes\":301,\"vpn\":1789,\"relay\":1,\"proxy\":0,\"hosting\":2058,\"service\":1460}","uploaders":"{\"size\":340,\"mobile\":22,\"satellite\":48,\"tor\":9,\"tor_exit_nodes\":9,\"vpn\":170,\"relay\":0,\"proxy\":0,\"hosting\":169,\"service\":160}"},"geometry":{"type":"Point","coordinates":[13.41053,52.52437]}},{"type":"Feature","properties":{"country_code":"KOR","city":"Ansan-si","geoname_id":"1846918","downloaders":"{\"size\":15665,\"mobile\":3,\"satellite\":0,\"tor\":0,\"tor_exit_nodes\":0,\"vpn\":266,\"relay\":0,\"proxy\":0,\"hosting\":0,\"service\":7}","uploaders":"{\"size\":40,\"mobile\":0,\"satellite\":0,\"tor\":0,\"tor_exit_nodes\":0,\"vpn\":0,\"relay\":0,\"proxy\":0,\"hosting\":0,\"service\":0}"},"geometry":{"type":"Point","coordinates":[126.82194,37.32361]}},{"type":"Feature","properties":{"country_code":"RUS","city":"Bryansk","geoname_id":"571476","downloaders":"{\"size\":15619,\"mobile\":7,\"satellite\":0,\"tor\":0,\"tor_exit_nodes\":0,\"vpn\":184,\"relay\":0,\"proxy\":0,\"hosting\":0,\"service\":17}","uploaders":"{\"size\":40,\"mobile\":0,\"satellite\":0,\"tor\":0,\"tor_exit_nodes\":0,\"vpn\":0,\"relay\":0,\"proxy\":0,\"hosting\":0,\"service\":0}"},"geometry":{"type":"Point","coordinates":[34.37167,53.25209]}},{"type":"Feature","properties":{"country_code":"RUS","city":"Ulyanovsk","geoname_id":"479123","downloaders":"{\"size\":15398,\"mobile\":892,\"satellite\":0,\"tor\":0,\"tor_exit_nodes\":0,\"vpn\":94,\"relay\":0,\"proxy\":0,\"hosting\":0,\"service\":15}","uploaders":"{\"size\":20,\"mobile\":0,\"satellite\":0,\"tor\":0,\"tor_exit_nodes\":0,\"vpn\":0,\"relay\":0,\"proxy\":0,\"hosting\":0,\"service\":0}"},"geometry":{"type":"Point","coordinates":[48.38657,54.32824]}},{"type":"Feature","properties":{"country_code":"RUS","city":"Tolyatti","geoname_id":"482283","downloaders":"{\"size\":15277,\"mobile\":0,\"satellite\":0,\"tor\":0,\"tor_exit_nodes\":0,\"vpn\":131,\"relay\":0,\"proxy\":0,\"hosting\":0,\"service\":6}","uploaders":"{\"size\":22,\"mobile\":0,\"satellite\":0,\"tor\":0,\"tor_exit_nodes\":0,\"vpn\":0,\"relay\":0,\"proxy\":0,\"hosting\":0,\"service\":0}"},"geometry":{"type":"Point","coordinates":[49.3461,53.5303]}},{"type":"Feature","properties":{"country_code":"RUS","city":"Orenburg","geoname_id":"515003","downloaders":"{\"size\":15129,\"mobile\":8,\"satellite\":0,\"tor\":0,\"tor_exit_nodes\":0,\"vpn\":524,\"relay\":0,\"proxy\":0,\"hosting\":0,\"service\":423}","uploaders":"{\"size\":23,\"mobile\":0,\"satellite\":0,\"tor\":0,\"tor_exit_nodes\":0,\"vpn\":0,\"relay\":0,\"proxy\":0,\"hosting\":0,\"service\":0}"},"geometry":{"type":"Point","coordinates":[55.0988,51.7727]}},{"type":"Feature","properties":{"country_code":"RUS","city":"Kirov","geoname_id":"548408","downloaders":"{\"size\":14927,\"mobile\":25,\"satellite\":0,\"tor\":0,\"tor_exit_nodes\":0,\"vpn\":1307,\"relay\":0,\"proxy\":0,\"hosting\":0,\"service\":1199}","uploaders":"{\"size\":57,\"mobile\":2,\"satellite\":0,\"tor\":0,\"tor_exit_nodes\":0,\"vpn\":4,\"relay\":0,\"proxy\":0,\"hosting\":0,\"service\":4}"},"geometry":{"type":"Point","coordinates":[49.66007,58.59665]}},{"type":"Feature","properties":{"country_code":"TUR","city":"Gaziantep","geoname_id":"314830","downloaders":"{\"size\":14719,\"mobile\":892,\"satellite\":0,\"tor\":0,\"tor_exit_nodes\":0,\"vpn\":1,\"relay\":0,\"proxy\":0,\"hosting\":0,\"service\":0}","uploaders":"{\"size\":7,\"mobile\":4,\"satellite\":0,\"tor\":0,\"tor_exit_nodes\":0,\"vpn\":0,\"relay\":0,\"proxy\":0,\"hosting\":0,\"service\":0}"},"geometry":{"type":"Point","coordinates":[37.3825,37.05944]}},{"type":"Feature","properties":{"country_code":"RUS","city":"Kamensk-Ural’skiy","geoname_id":"1504826","downloaders":"{\"size\":14636,\"mobile\":0,\"satellite\":0,\"tor\":0,\"tor_exit_nodes\":0,\"vpn\":13,\"relay\":0,\"proxy\":4,\"hosting\":0,\"service\":3}","uploaders":"{\"size\":4,\"mobile\":0,\"satellite\":0,\"tor\":0,\"tor_exit_nodes\":0,\"vpn\":0,\"relay\":0,\"proxy\":0,\"hosting\":0,\"service\":0}"},"geometry":{"type":"Point","coordinates":[61.93347,56.40626]}},{"type":"Feature","properties":{"country_code":"TUR","city":"Antalya","geoname_id":"323777","downloaders":"{\"size\":14005,\"mobile\":7198,\"satellite\":0,\"tor\":0,\"tor_exit_nodes\":0,\"vpn\":5,\"relay\":0,\"proxy\":0,\"hosting\":0,\"service\":0}","uploaders":"{\"size\":12,\"mobile\":7,\"satellite\":0,\"tor\":0,\"tor_exit_nodes\":0,\"vpn\":0,\"relay\":0,\"proxy\":0,\"hosting\":0,\"service\":0}"},"geometry":{"type":"Point","coordinates":[30.69556,36.90812]}},{"type":"Feature","properties":{"country_code":"CHE","city":"Zürich","geoname_id":"2657896","downloaders":"{\"size\":13915,\"mobile\":1639,\"satellite\":0,\"tor\":35,\"tor_exit_nodes\":30,\"vpn\":6743,\"relay\":5,\"proxy\":5,\"hosting\":6584,\"service\":6316}","uploaders":"{\"size\":1448,\"mobile\":159,\"satellite\":0,\"tor\":0,\"tor_exit_nodes\":0,\"vpn\":1066,\"relay\":0,\"proxy\":0,\"hosting\":888,\"service\":987}"},"geometry":{"type":"Point","coordinates":[8.55,47.36667]}},{"type":"Feature","properties":{"country_code":"KOR","city":"Cheongju-si","geoname_id":"1845604","downloaders":"{\"size\":13794,\"mobile\":3,\"satellite\":0,\"tor\":0,\"tor_exit_nodes\":0,\"vpn\":95,\"relay\":0,\"proxy\":0,\"hosting\":0,\"service\":15}","uploaders":"{\"size\":41,\"mobile\":0,\"satellite\":0,\"tor\":0,\"tor_exit_nodes\":0,\"vpn\":0,\"relay\":0,\"proxy\":0,\"hosting\":0,\"service\":0}"},"geometry":{"type":"Point","coordinates":[127.48972,36.63722]}},{"type":"Feature","properties":{"country_code":"USA","city":"Phoenix","geoname_id":"5308655","downloaders":"{\"size\":13709,\"mobile\":212,\"satellite\":11,\"tor\":0,\"tor_exit_nodes\":0,\"vpn\":1274,\"relay\":4,\"proxy\":0,\"hosting\":7664,\"service\":1170}","uploaders":"{\"size\":546,\"mobile\":48,\"satellite\":6,\"tor\":0,\"tor_exit_nodes\":0,\"vpn\":181,\"relay\":0,\"proxy\":0,\"hosting\":392,\"service\":164}"},"geometry":{"type":"Point","coordinates":[-112.07404,33.44838]}},{"type":"Feature","properties":{"country_code":"RUS","city":"Cheboksary","geoname_id":"569696","downloaders":"{\"size\":13592,\"mobile\":1710,\"satellite\":0,\"tor\":0,\"tor_exit_nodes\":0,\"vpn\":130,\"relay\":0,\"proxy\":0,\"hosting\":0,\"service\":9}","uploaders":"{\"size\":18,\"mobile\":4,\"satellite\":0,\"tor\":0,\"tor_exit_nodes\":0,\"vpn\":0,\"relay\":0,\"proxy\":0,\"hosting\":0,\"service\":0}"},"geometry":{"type":"Point","coordinates":[47.25194,56.13222]}},{"type":"Feature","properties":{"country_code":"RUS","city":"Izhevsk","geoname_id":"554840","downloaders":"{\"size\":13510,\"mobile\":974,\"satellite\":0,\"tor\":0,\"tor_exit_nodes\":0,\"vpn\":111,\"relay\":0,\"proxy\":0,\"hosting\":13,\"service\":8}","uploaders":"{\"size\":9,\"mobile\":1,\"satellite\":0,\"tor\":0,\"tor_exit_nodes\":0,\"vpn\":0,\"relay\":0,\"proxy\":0,\"hosting\":0,\"service\":0}"},"geometry":{"type":"Point","coordinates":[53.20448,56.84976]}},{"type":"Feature","properties":{"country_code":"USA","city":"Seattle","geoname_id":"5809844","downloaders":"{\"size\":13403,\"mobile\":246,\"satellite\":99,\"tor\":0,\"tor_exit_nodes\":0,\"vpn\":5853,\"relay\":0,\"proxy\":0,\"hosting\":11017,\"service\":5630}","uploaders":"{\"size\":1259,\"mobile\":40,\"satellite\":11,\"tor\":0,\"tor_exit_nodes\":0,\"vpn\":919,\"relay\":0,\"proxy\":0,\"hosting\":1118,\"service\":897}"},"geometry":{"type":"Point","coordinates":[-122.3129,47.5413]}},{"type":"Feature","properties":{"country_code":"KOR","city":"Haegok","geoname_id":"6398843","downloaders":"{\"size\":13026,\"mobile\":6,\"satellite\":0,\"tor\":0,\"tor_exit_nodes\":0,\"vpn\":190,\"relay\":0,\"proxy\":0,\"hosting\":0,\"service\":2}","uploaders":"{\"size\":25,\"mobile\":0,\"satellite\":0,\"tor\":0,\"tor_exit_nodes\":0,\"vpn\":0,\"relay\":0,\"proxy\":0,\"hosting\":0,\"service\":0}"},"geometry":{"type":"Point","coordinates":[127.27880999999999,37.19251]}},{"type":"Feature","properties":{"country_code":"USA","city":"Atlanta","geoname_id":"4180439","downloaders":"{\"size\":12975,\"mobile\":227,\"satellite\":23,\"tor\":0,\"tor_exit_nodes\":0,\"vpn\":4392,\"relay\":0,\"proxy\":0,\"hosting\":5967,\"service\":4073}","uploaders":"{\"size\":949,\"mobile\":37,\"satellite\":0,\"tor\":0,\"tor_exit_nodes\":0,\"vpn\":613,\"relay\":0,\"proxy\":0,\"hosting\":810,\"service\":548}"},"geometry":{"type":"Point","coordinates":[-84.4454,33.7865]}},{"type":"Feature","properties":{"country_code":"CAN","city":"Vancouver","geoname_id":"6173331","downloaders":"{\"size\":12923,\"mobile\":539,\"satellite\":31,\"tor\":0,\"tor_exit_nodes\":0,\"vpn\":6611,\"relay\":0,\"proxy\":2,\"hosting\":5763,\"service\":6039}","uploaders":"{\"size\":1826,\"mobile\":68,\"satellite\":2,\"tor\":0,\"tor_exit_nodes\":0,\"vpn\":1176,\"relay\":0,\"proxy\":0,\"hosting\":1016,\"service\":1115}"},"geometry":{"type":"Point","coordinates":[-123.11934,49.24966]}},{"type":"Feature","properties":{"country_code":"KOR","city":"Anyang-si","geoname_id":"1846898","downloaders":"{\"size\":12900,\"mobile\":12,\"satellite\":0,\"tor\":0,\"tor_exit_nodes\":0,\"vpn\":165,\"relay\":0,\"proxy\":0,\"hosting\":0,\"service\":31}","uploaders":"{\"size\":37,\"mobile\":0,\"satellite\":0,\"tor\":0,\"tor_exit_nodes\":0,\"vpn\":2,\"relay\":0,\"proxy\":0,\"hosting\":0,\"service\":0}"},"geometry":{"type":"Point","coordinates":[126.92694,37.3925]}},{"type":"Feature","properties":{"country_code":"KOR","city":"Bucheon-si","geoname_id":"1838716","downloaders":"{\"size\":12765,\"mobile\":4,\"satellite\":0,\"tor\":0,\"tor_exit_nodes\":0,\"vpn\":305,\"relay\":0,\"proxy\":0,\"hosting\":0,\"service\":11}","uploaders":"{\"size\":32,\"mobile\":0,\"satellite\":0,\"tor\":0,\"tor_exit_nodes\":0,\"vpn\":1,\"relay\":0,\"proxy\":0,\"hosting\":0,\"service\":0}"},"geometry":{"type":"Point","coordinates":[126.78306,37.49889]}},{"type":"Feature","properties":{"country_code":"PRT","city":"Lisbon","geoname_id":"2267057","downloaders":"{\"size\":12634,\"mobile\":1162,\"satellite\":0,\"tor\":0,\"tor_exit_nodes\":0,\"vpn\":498,\"relay\":0,\"proxy\":0,\"hosting\":575,\"service\":427}","uploaders":"{\"size\":889,\"mobile\":182,\"satellite\":0,\"tor\":0,\"tor_exit_nodes\":0,\"vpn\":86,\"relay\":0,\"proxy\":0,\"hosting\":105,\"service\":81}"},"geometry":{"type":"Point","coordinates":[-9.1498,38.72509]}},{"type":"Feature","properties":{"country_code":"RUS","city":"Surgut","geoname_id":"1490624","downloaders":"{\"size\":12585,\"mobile\":1226,\"satellite\":0,\"tor\":0,\"tor_exit_nodes\":0,\"vpn\":68,\"relay\":0,\"proxy\":0,\"hosting\":35,\"service\":15}","uploaders":"{\"size\":22,\"mobile\":5,\"satellite\":0,\"tor\":0,\"tor_exit_nodes\":0,\"vpn\":0,\"relay\":0,\"proxy\":0,\"hosting\":0,\"service\":0}"},"geometry":{"type":"Point","coordinates":[73.41775,61.25757]}},{"type":"Feature","properties":{"country_code":"TWN","city":"Taipei","geoname_id":"1668341","downloaders":"{\"size\":12486,\"mobile\":624,\"satellite\":0,\"tor\":7,\"tor_exit_nodes\":7,\"vpn\":804,\"relay\":14,\"proxy\":0,\"hosting\":614,\"service\":391}","uploaders":"{\"size\":539,\"mobile\":73,\"satellite\":0,\"tor\":1,\"tor_exit_nodes\":1,\"vpn\":46,\"relay\":1,\"proxy\":0,\"hosting\":94,\"service\":43}"},"geometry":{"type":"Point","coordinates":[121.52639,25.05306]}},{"type":"Feature","properties":{"country_code":"ZAF","city":"Cape Town","geoname_id":"3369157","downloaders":"{\"size\":12365,\"mobile\":3367,\"satellite\":0,\"tor\":0,\"tor_exit_nodes\":0,\"vpn\":111,\"relay\":0,\"proxy\":0,\"hosting\":2600,\"service\":1}","uploaders":"{\"size\":3759,\"mobile\":1034,\"satellite\":0,\"tor\":0,\"tor_exit_nodes\":0,\"vpn\":40,\"relay\":0,\"proxy\":0,\"hosting\":783,\"service\":1}"},"geometry":{"type":"Point","coordinates":[18.42322,-33.92584]}},{"type":"Feature","properties":{"country_code":"NLD","city":"Haarlem","geoname_id":"2755003","downloaders":"{\"size\":12213,\"mobile\":0,\"satellite\":0,\"tor\":0,\"tor_exit_nodes\":0,\"vpn\":5950,\"relay\":0,\"proxy\":0,\"hosting\":11411,\"service\":1328}","uploaders":"{\"size\":211,\"mobile\":0,\"satellite\":0,\"tor\":0,\"tor_exit_nodes\":0,\"vpn\":64,\"relay\":0,\"proxy\":0,\"hosting\":181,\"service\":58}"},"geometry":{"type":"Point","coordinates":[4.63683,52.38084]}},{"type":"Feature","properties":{"country_code":"RUS","city":"Kaliningrad","geoname_id":"554234","downloaders":"{\"size\":12199,\"mobile\":50,\"satellite\":0,\"tor\":0,\"tor_exit_nodes\":0,\"vpn\":63,\"relay\":0,\"proxy\":0,\"hosting\":9,\"service\":0}","uploaders":"{\"size\":101,\"mobile\":0,\"satellite\":0,\"tor\":0,\"tor_exit_nodes\":0,\"vpn\":2,\"relay\":0,\"proxy\":0,\"hosting\":0,\"service\":0}"},"geometry":{"type":"Point","coordinates":[20.51095,54.70649]}},{"type":"Feature","properties":{"country_code":"RUS","city":"Novokuznetsk","geoname_id":"1496990","downloaders":"{\"size\":12121,\"mobile\":24,\"satellite\":0,\"tor\":0,\"tor_exit_nodes\":0,\"vpn\":25,\"relay\":0,\"proxy\":0,\"hosting\":0,\"service\":1}","uploaders":"{\"size\":16,\"mobile\":0,\"satellite\":0,\"tor\":0,\"tor_exit_nodes\":0,\"vpn\":0,\"relay\":0,\"proxy\":0,\"hosting\":0,\"service\":0}"},"geometry":{"type":"Point","coordinates":[87.13599,53.75752]}},{"type":"Feature","properties":{"country_code":"RUS","city":"Ryazan’","geoname_id":"500096","downloaders":"{\"size\":11855,\"mobile\":195,\"satellite\":0,\"tor\":0,\"tor_exit_nodes\":4,\"vpn\":229,\"relay\":0,\"proxy\":0,\"hosting\":15,\"service\":59}","uploaders":"{\"size\":24,\"mobile\":4,\"satellite\":0,\"tor\":0,\"tor_exit_nodes\":0,\"vpn\":0,\"relay\":0,\"proxy\":0,\"hosting\":0,\"service\":0}"},"geometry":{"type":"Point","coordinates":[39.6916,54.6269]}},{"type":"Feature","properties":{"country_code":"EGY","city":"Cairo","geoname_id":"360630","downloaders":"{\"size\":11808,\"mobile\":509,\"satellite\":0,\"tor\":0,\"tor_exit_nodes\":0,\"vpn\":28,\"relay\":0,\"proxy\":0,\"hosting\":29,\"service\":19}","uploaders":"{\"size\":332,\"mobile\":21,\"satellite\":0,\"tor\":0,\"tor_exit_nodes\":0,\"vpn\":3,\"relay\":0,\"proxy\":0,\"hosting\":3,\"service\":3}"},"geometry":{"type":"Point","coordinates":[31.24967,30.06263]}},{"type":"Feature","properties":{"country_code":"RUS","city":"Odintsovo","geoname_id":"516215","downloaders":"{\"size\":11783,\"mobile\":3,\"satellite\":0,\"tor\":0,\"tor_exit_nodes\":0,\"vpn\":348,\"relay\":0,\"proxy\":0,\"hosting\":151,\"service\":0}","uploaders":"{\"size\":9,\"mobile\":0,\"satellite\":0,\"tor\":0,\"tor_exit_nodes\":0,\"vpn\":0,\"relay\":0,\"proxy\":0,\"hosting\":0,\"service\":0}"},"geometry":{"type":"Point","coordinates":[37.27716,55.66977]}},{"type":"Feature","properties":{"country_code":"USA","city":"Dallas","geoname_id":"4684888","downloaders":"{\"size\":11730,\"mobile\":291,\"satellite\":77,\"tor\":0,\"tor_exit_nodes\":0,\"vpn\":7172,\"relay\":1,\"proxy\":1,\"hosting\":8910,\"service\":6779}","uploaders":"{\"size\":1140,\"mobile\":32,\"satellite\":4,\"tor\":0,\"tor_exit_nodes\":0,\"vpn\":865,\"relay\":0,\"proxy\":0,\"hosting\":1003,\"service\":834}"},"geometry":{"type":"Point","coordinates":[-96.8703,32.8152]}},{"type":"Feature","properties":{"country_code":"ISR","city":"Tel Aviv","geoname_id":"293397","downloaders":"{\"size\":11669,\"mobile\":2552,\"satellite\":0,\"tor\":0,\"tor_exit_nodes\":0,\"vpn\":450,\"relay\":2,\"proxy\":0,\"hosting\":551,\"service\":409}","uploaders":"{\"size\":1204,\"mobile\":276,\"satellite\":0,\"tor\":0,\"tor_exit_nodes\":0,\"vpn\":58,\"relay\":0,\"proxy\":0,\"hosting\":71,\"service\":52}"},"geometry":{"type":"Point","coordinates":[34.78057,32.08088]}},{"type":"Feature","properties":{"country_code":"BRA","city":"Colombo","geoname_id":"3465927","downloaders":"{\"size\":11661,\"mobile\":0,\"satellite\":0,\"tor\":0,\"tor_exit_nodes\":0,\"vpn\":4,\"relay\":0,\"proxy\":0,\"hosting\":0,\"service\":0}","uploaders":"{\"size\":8,\"mobile\":0,\"satellite\":0,\"tor\":0,\"tor_exit_nodes\":0,\"vpn\":0,\"relay\":0,\"proxy\":0,\"hosting\":0,\"service\":0}"},"geometry":{"type":"Point","coordinates":[-49.22417,-25.29167]}},{"type":"Feature","properties":{"country_code":"FRA","city":"Marseille","geoname_id":"2995469","downloaders":"{\"size\":11644,\"mobile\":2601,\"satellite\":0,\"tor\":0,\"tor_exit_nodes\":0,\"vpn\":1382,\"relay\":0,\"proxy\":0,\"hosting\":1913,\"service\":1379}","uploaders":"{\"size\":374,\"mobile\":29,\"satellite\":0,\"tor\":0,\"tor_exit_nodes\":0,\"vpn\":250,\"relay\":0,\"proxy\":0,\"hosting\":293,\"service\":250}"},"geometry":{"type":"Point","coordinates":[5.38107,43.29695]}},{"type":"Feature","properties":{"country_code":"TUR","city":"Konya","geoname_id":"306571","downloaders":"{\"size\":11644,\"mobile\":3399,\"satellite\":0,\"tor\":0,\"tor_exit_nodes\":0,\"vpn\":0,\"relay\":0,\"proxy\":0,\"hosting\":1,\"service\":0}","uploaders":"{\"size\":8,\"mobile\":3,\"satellite\":0,\"tor\":0,\"tor_exit_nodes\":0,\"vpn\":0,\"relay\":0,\"proxy\":0,\"hosting\":0,\"service\":0}"},"geometry":{"type":"Point","coordinates":[32.48464,37.87135]}},{"type":"Feature","properties":{"country_code":"AUT","city":"Vienna","geoname_id":"2761369","downloaders":"{\"size\":11567,\"mobile\":1343,\"satellite\":4,\"tor\":31,\"tor_exit_nodes\":34,\"vpn\":1219,\"relay\":1,\"proxy\":20,\"hosting\":1564,\"service\":1111}","uploaders":"{\"size\":436,\"mobile\":113,\"satellite\":0,\"tor\":0,\"tor_exit_nodes\":0,\"vpn\":191,\"relay\":0,\"proxy\":0,\"hosting\":212,\"service\":181}"},"geometry":{"type":"Point","coordinates":[16.37208,48.20849]}},{"type":"Feature","properties":{"country_code":"MEX","city":"Ciudad General Escobedo","geoname_id":"4005867","downloaders":"{\"size\":11508,\"mobile\":3,\"satellite\":0,\"tor\":0,\"tor_exit_nodes\":0,\"vpn\":11,\"relay\":0,\"proxy\":0,\"hosting\":0,\"service\":0}","uploaders":"{\"size\":9,\"mobile\":0,\"satellite\":0,\"tor\":0,\"tor_exit_nodes\":0,\"vpn\":0,\"relay\":0,\"proxy\":0,\"hosting\":0,\"service\":0}"},"geometry":{"type":"Point","coordinates":[-100.31791,25.79698]}},{"type":"Feature","properties":{"country_code":"MEX","city":"Ciudad Juárez","geoname_id":"4013708","downloaders":"{\"size\":11497,\"mobile\":6,\"satellite\":0,\"tor\":0,\"tor_exit_nodes\":0,\"vpn\":39,\"relay\":0,\"proxy\":0,\"hosting\":0,\"service\":25}","uploaders":"{\"size\":4,\"mobile\":2,\"satellite\":0,\"tor\":0,\"tor_exit_nodes\":0,\"vpn\":0,\"relay\":0,\"proxy\":0,\"hosting\":0,\"service\":0}"},"geometry":{"type":"Point","coordinates":[-106.46084,31.72024]}},{"type":"Feature","properties":{"country_code":"PRT","city":"Porto","geoname_id":"2735943","downloaders":"{\"size\":11484,\"mobile\":426,\"satellite\":0,\"tor\":0,\"tor_exit_nodes\":0,\"vpn\":115,\"relay\":0,\"proxy\":0,\"hosting\":1,\"service\":0}","uploaders":"{\"size\":421,\"mobile\":47,\"satellite\":0,\"tor\":0,\"tor_exit_nodes\":0,\"vpn\":2,\"relay\":0,\"proxy\":0,\"hosting\":0,\"service\":0}"},"geometry":{"type":"Point","coordinates":[-8.61099,41.14961]}},{"type":"Feature","properties":{"country_code":"MDA","city":"Chisinau","geoname_id":"618426","downloaders":"{\"size\":11457,\"mobile\":200,\"satellite\":0,\"tor\":2,\"tor_exit_nodes\":7,\"vpn\":187,\"relay\":0,\"proxy\":0,\"hosting\":492,\"service\":117}","uploaders":"{\"size\":63,\"mobile\":15,\"satellite\":0,\"tor\":0,\"tor_exit_nodes\":0,\"vpn\":8,\"relay\":0,\"proxy\":0,\"hosting\":26,\"service\":7}"},"geometry":{"type":"Point","coordinates":[28.85938,47.00902]}},{"type":"Feature","properties":{"country_code":"RUS","city":"Korolev","geoname_id":"554233","downloaders":"{\"size\":11367,\"mobile\":4,\"satellite\":0,\"tor\":0,\"tor_exit_nodes\":0,\"vpn\":235,\"relay\":0,\"proxy\":0,\"hosting\":551,\"service\":6}","uploaders":"{\"size\":12,\"mobile\":0,\"satellite\":0,\"tor\":0,\"tor_exit_nodes\":0,\"vpn\":0,\"relay\":0,\"proxy\":0,\"hosting\":0,\"service\":0}"},"geometry":{"type":"Point","coordinates":[37.82556,55.91417]}},{"type":"Feature","properties":{"country_code":"SAU","city":"Riyadh","geoname_id":"108410","downloaders":"{\"size\":11331,\"mobile\":3363,\"satellite\":0,\"tor\":0,\"tor_exit_nodes\":0,\"vpn\":54,\"relay\":0,\"proxy\":0,\"hosting\":90,\"service\":39}","uploaders":"{\"size\":527,\"mobile\":274,\"satellite\":0,\"tor\":0,\"tor_exit_nodes\":0,\"vpn\":8,\"relay\":0,\"proxy\":0,\"hosting\":13,\"service\":8}"},"geometry":{"type":"Point","coordinates":[46.72185,24.68773]}},{"type":"Feature","properties":{"country_code":"RUS","city":"Ivanovo","geoname_id":"555312","downloaders":"{\"size\":11310,\"mobile\":661,\"satellite\":0,\"tor\":0,\"tor_exit_nodes\":0,\"vpn\":202,\"relay\":0,\"proxy\":0,\"hosting\":0,\"service\":31}","uploaders":"{\"size\":9,\"mobile\":3,\"satellite\":0,\"tor\":0,\"tor_exit_nodes\":0,\"vpn\":1,\"relay\":0,\"proxy\":0,\"hosting\":0,\"service\":0}"},"geometry":{"type":"Point","coordinates":[40.97139,56.99719]}},{"type":"Feature","properties":{"country_code":"RUS","city":"Kaluga","geoname_id":"553915","downloaders":"{\"size\":11200,\"mobile\":20,\"satellite\":0,\"tor\":0,\"tor_exit_nodes\":0,\"vpn\":73,\"relay\":0,\"proxy\":0,\"hosting\":15,\"service\":0}","uploaders":"{\"size\":17,\"mobile\":0,\"satellite\":0,\"tor\":0,\"tor_exit_nodes\":0,\"vpn\":2,\"relay\":0,\"proxy\":0,\"hosting\":0,\"service\":0}"},"geometry":{"type":"Point","coordinates":[36.27542,54.5293]}},{"type":"Feature","properties":{"country_code":"POL","city":"Gdańsk","geoname_id":"3099434","downloaders":"{\"size\":11179,\"mobile\":100,\"satellite\":0,\"tor\":0,\"tor_exit_nodes\":0,\"vpn\":34,\"relay\":0,\"proxy\":0,\"hosting\":78,\"service\":2}","uploaders":"{\"size\":110,\"mobile\":0,\"satellite\":0,\"tor\":0,\"tor_exit_nodes\":0,\"vpn\":2,\"relay\":0,\"proxy\":0,\"hosting\":2,\"service\":0}"},"geometry":{"type":"Point","coordinates":[18.64912,54.35227]}},{"type":"Feature","properties":{"country_code":"FRA","city":"Lyon","geoname_id":"2996944","downloaders":"{\"size\":11145,\"mobile\":2098,\"satellite\":0,\"tor\":0,\"tor_exit_nodes\":0,\"vpn\":15,\"relay\":0,\"proxy\":0,\"hosting\":130,\"service\":0}","uploaders":"{\"size\":152,\"mobile\":126,\"satellite\":0,\"tor\":0,\"tor_exit_nodes\":0,\"vpn\":0,\"relay\":0,\"proxy\":0,\"hosting\":1,\"service\":0}"},"geometry":{"type":"Point","coordinates":[4.84671,45.74846]}},{"type":"Feature","properties":{"country_code":"BRA","city":"Guarulhos","geoname_id":"3461786","downloaders":"{\"size\":11108,\"mobile\":273,\"satellite\":0,\"tor\":0,\"tor_exit_nodes\":0,\"vpn\":38,\"relay\":0,\"proxy\":0,\"hosting\":0,\"service\":7}","uploaders":"{\"size\":26,\"mobile\":2,\"satellite\":0,\"tor\":0,\"tor_exit_nodes\":0,\"vpn\":0,\"relay\":0,\"proxy\":0,\"hosting\":0,\"service\":0}"},"geometry":{"type":"Point","coordinates":[-46.53333,-23.46278]}},{"type":"Feature","properties":{"country_code":"KOR","city":"Ulsan","geoname_id":"1833747","downloaders":"{\"size\":11069,\"mobile\":4,\"satellite\":0,\"tor\":0,\"tor_exit_nodes\":0,\"vpn\":135,\"relay\":0,\"proxy\":0,\"hosting\":0,\"service\":67}","uploaders":"{\"size\":33,\"mobile\":0,\"satellite\":0,\"tor\":0,\"tor_exit_nodes\":0,\"vpn\":0,\"relay\":0,\"proxy\":0,\"hosting\":0,\"service\":0}"},"geometry":{"type":"Point","coordinates":[129.31667,35.53722]}},{"type":"Feature","properties":{"country_code":"AUS","city":"Brisbane","geoname_id":"2174003","downloaders":"{\"size\":11001,\"mobile\":841,\"satellite\":123,\"tor\":0,\"tor_exit_nodes\":0,\"vpn\":2117,\"relay\":0,\"proxy\":0,\"hosting\":2308,\"service\":1470}","uploaders":"{\"size\":1843,\"mobile\":124,\"satellite\":57,\"tor\":0,\"tor_exit_nodes\":0,\"vpn\":447,\"relay\":0,\"proxy\":0,\"hosting\":530,\"service\":406}"},"geometry":{"type":"Point","coordinates":[153.02809,-27.46794]}},{"type":"Feature","properties":{"country_code":"EST","city":"Tallinn","geoname_id":"588409","downloaders":"{\"size\":10980,\"mobile\":473,\"satellite\":0,\"tor\":0,\"tor_exit_nodes\":0,\"vpn\":793,\"relay\":0,\"proxy\":1,\"hosting\":1115,\"service\":653}","uploaders":"{\"size\":330,\"mobile\":64,\"satellite\":0,\"tor\":0,\"tor_exit_nodes\":0,\"vpn\":75,\"relay\":0,\"proxy\":0,\"hosting\":97,\"service\":73}"},"geometry":{"type":"Point","coordinates":[24.75353,59.43696]}},{"type":"Feature","properties":{"country_code":"BGR","city":"Plovdiv","geoname_id":"728193","downloaders":"{\"size\":10897,\"mobile\":239,\"satellite\":0,\"tor\":0,\"tor_exit_nodes\":0,\"vpn\":160,\"relay\":0,\"proxy\":0,\"hosting\":3062,\"service\":0}","uploaders":"{\"size\":74,\"mobile\":0,\"satellite\":0,\"tor\":0,\"tor_exit_nodes\":0,\"vpn\":0,\"relay\":0,\"proxy\":0,\"hosting\":17,\"service\":0}"},"geometry":{"type":"Point","coordinates":[24.75,42.15]}},{"type":"Feature","properties":{"country_code":"RUS","city":"Khabarovsk","geoname_id":"2022890","downloaders":"{\"size\":10792,\"mobile\":827,\"satellite\":7,\"tor\":0,\"tor_exit_nodes\":0,\"vpn\":179,\"relay\":0,\"proxy\":0,\"hosting\":22,\"service\":164}","uploaders":"{\"size\":59,\"mobile\":8,\"satellite\":1,\"tor\":0,\"tor_exit_nodes\":0,\"vpn\":0,\"relay\":0,\"proxy\":0,\"hosting\":0,\"service\":0}"},"geometry":{"type":"Point","coordinates":[135.08822,48.48032]}},{"type":"Feature","properties":{"country_code":"GRC","city":"Athens","geoname_id":"264371","downloaders":"{\"size\":10740,\"mobile\":1221,\"satellite\":6,\"tor\":0,\"tor_exit_nodes\":0,\"vpn\":212,\"relay\":70,\"proxy\":0,\"hosting\":493,\"service\":229}","uploaders":"{\"size\":1693,\"mobile\":314,\"satellite\":0,\"tor\":0,\"tor_exit_nodes\":0,\"vpn\":27,\"relay\":16,\"proxy\":0,\"hosting\":70,\"service\":39}"},"geometry":{"type":"Point","coordinates":[23.72784,37.98376]}},{"type":"Feature","properties":{"country_code":"COL","city":"Bogotá","geoname_id":"3688689","downloaders":"{\"size\":10717,\"mobile\":4631,\"satellite\":20,\"tor\":0,\"tor_exit_nodes\":0,\"vpn\":361,\"relay\":0,\"proxy\":0,\"hosting\":568,\"service\":191}","uploaders":"{\"size\":153,\"mobile\":24,\"satellite\":3,\"tor\":0,\"tor_exit_nodes\":0,\"vpn\":73,\"relay\":0,\"proxy\":0,\"hosting\":81,\"service\":67}"},"geometry":{"type":"Point","coordinates":[-74.1036,4.6948]}},{"type":"Feature","properties":{"country_code":"ITA","city":"Naples","geoname_id":"3172394","downloaders":"{\"size\":10691,\"mobile\":2197,\"satellite\":0,\"tor\":0,\"tor_exit_nodes\":0,\"vpn\":29,\"relay\":0,\"proxy\":0,\"hosting\":2,\"service\":0}","uploaders":"{\"size\":122,\"mobile\":31,\"satellite\":0,\"tor\":0,\"tor_exit_nodes\":0,\"vpn\":0,\"relay\":0,\"proxy\":0,\"hosting\":2,\"service\":0}"},"geometry":{"type":"Point","coordinates":[14.26811,40.85216]}},{"type":"Feature","properties":{"country_code":"CHN","city":"Ningbo","geoname_id":"1799397","downloaders":"{\"size\":10662,\"mobile\":0,\"satellite\":0,\"tor\":0,\"tor_exit_nodes\":0,\"vpn\":118,\"relay\":0,\"proxy\":0,\"hosting\":46,\"service\":0}","uploaders":"{\"size\":308,\"mobile\":0,\"satellite\":0,\"tor\":0,\"tor_exit_nodes\":0,\"vpn\":0,\"relay\":0,\"proxy\":0,\"hosting\":14,\"service\":0}"},"geometry":{"type":"Point","coordinates":[121.54945,29.87819]}},{"type":"Feature","properties":{"country_code":"RUS","city":"Vladivostok","geoname_id":"2013348","downloaders":"{\"size\":10649,\"mobile\":139,\"satellite\":0,\"tor\":0,\"tor_exit_nodes\":0,\"vpn\":2142,\"relay\":0,\"proxy\":0,\"hosting\":45,\"service\":1282}","uploaders":"{\"size\":64,\"mobile\":0,\"satellite\":0,\"tor\":0,\"tor_exit_nodes\":0,\"vpn\":8,\"relay\":0,\"proxy\":0,\"hosting\":0,\"service\":4}"},"geometry":{"type":"Point","coordinates":[131.87353,43.10562]}},{"type":"Feature","properties":{"country_code":"RUS","city":"Stavropol’","geoname_id":"487846","downloaders":"{\"size\":10635,\"mobile\":4383,\"satellite\":0,\"tor\":0,\"tor_exit_nodes\":0,\"vpn\":97,\"relay\":0,\"proxy\":0,\"hosting\":0,\"service\":13}","uploaders":"{\"size\":16,\"mobile\":9,\"satellite\":0,\"tor\":0,\"tor_exit_nodes\":0,\"vpn\":0,\"relay\":0,\"proxy\":0,\"hosting\":0,\"service\":0}"},"geometry":{"type":"Point","coordinates":[41.9734,45.0428]}},{"type":"Feature","properties":{"country_code":"RUS","city":"Vladimir","geoname_id":"473247","downloaders":"{\"size\":10578,\"mobile\":176,\"satellite\":0,\"tor\":0,\"tor_exit_nodes\":0,\"vpn\":90,\"relay\":0,\"proxy\":0,\"hosting\":0,\"service\":0}","uploaders":"{\"size\":21,\"mobile\":4,\"satellite\":0,\"tor\":0,\"tor_exit_nodes\":0,\"vpn\":0,\"relay\":0,\"proxy\":0,\"hosting\":0,\"service\":0}"},"geometry":{"type":"Point","coordinates":[40.39658,56.13655]}},{"type":"Feature","properties":{"country_code":"TUR","city":"Adana","geoname_id":"325363","downloaders":"{\"size\":10484,\"mobile\":230,\"satellite\":0,\"tor\":0,\"tor_exit_nodes\":0,\"vpn\":0,\"relay\":0,\"proxy\":0,\"hosting\":0,\"service\":0}","uploaders":"{\"size\":10,\"mobile\":2,\"satellite\":0,\"tor\":0,\"tor_exit_nodes\":0,\"vpn\":0,\"relay\":0,\"proxy\":0,\"hosting\":0,\"service\":0}"},"geometry":{"type":"Point","coordinates":[35.32531,36.98615]}},{"type":"Feature","properties":{"country_code":"USA","city":"Houston","geoname_id":"4699066","downloaders":"{\"size\":10462,\"mobile\":77,\"satellite\":0,\"tor\":0,\"tor_exit_nodes\":0,\"vpn\":1117,\"relay\":0,\"proxy\":0,\"hosting\":1813,\"service\":1000}","uploaders":"{\"size\":457,\"mobile\":6,\"satellite\":0,\"tor\":0,\"tor_exit_nodes\":0,\"vpn\":220,\"relay\":0,\"proxy\":0,\"hosting\":303,\"service\":195}"},"geometry":{"type":"Point","coordinates":[-95.4034,29.7736]}},{"type":"Feature","properties":{"country_code":"KAZ","city":"Almaty","geoname_id":"1526384","downloaders":"{\"size\":10441,\"mobile\":1938,\"satellite\":0,\"tor\":0,\"tor_exit_nodes\":0,\"vpn\":76,\"relay\":0,\"proxy\":0,\"hosting\":1647,\"service\":4}","uploaders":"{\"size\":20,\"mobile\":1,\"satellite\":0,\"tor\":0,\"tor_exit_nodes\":0,\"vpn\":0,\"relay\":0,\"proxy\":0,\"hosting\":4,\"service\":0}"},"geometry":{"type":"Point","coordinates":[76.9115,43.25249]}},{"type":"Feature","properties":{"country_code":"MEX","city":"Zapopan","geoname_id":"3979770","downloaders":"{\"size\":10419,\"mobile\":9,\"satellite\":0,\"tor\":0,\"tor_exit_nodes\":0,\"vpn\":15,\"relay\":0,\"proxy\":0,\"hosting\":0,\"service\":0}","uploaders":"{\"size\":31,\"mobile\":0,\"satellite\":0,\"tor\":0,\"tor_exit_nodes\":0,\"vpn\":4,\"relay\":0,\"proxy\":0,\"hosting\":0,\"service\":0}"},"geometry":{"type":"Point","coordinates":[-103.38742,20.72111]}},{"type":"Feature","properties":{"country_code":"NOR","city":"Oslo","geoname_id":"3143244","downloaders":"{\"size\":10376,\"mobile\":685,\"satellite\":0,\"tor\":3,\"tor_exit_nodes\":27,\"vpn\":2302,\"relay\":8,\"proxy\":0,\"hosting\":1833,\"service\":2218}","uploaders":"{\"size\":413,\"mobile\":37,\"satellite\":0,\"tor\":0,\"tor_exit_nodes\":0,\"vpn\":218,\"relay\":0,\"proxy\":0,\"hosting\":180,\"service\":216}"},"geometry":{"type":"Point","coordinates":[10.74609,59.91273]}},{"type":"Feature","properties":{"country_code":"UKR","city":"Lviv","geoname_id":"702550","downloaders":"{\"size\":10357,\"mobile\":369,\"satellite\":2,\"tor\":0,\"tor_exit_nodes\":0,\"vpn\":99,\"relay\":0,\"proxy\":0,\"hosting\":31,\"service\":0}","uploaders":"{\"size\":172,\"mobile\":33,\"satellite\":0,\"tor\":0,\"tor_exit_nodes\":0,\"vpn\":0,\"relay\":0,\"proxy\":0,\"hosting\":6,\"service\":0}"},"geometry":{"type":"Point","coordinates":[24.02324,49.83826]}},{"type":"Feature","properties":{"country_code":"UKR","city":"Dnipro","geoname_id":"709930","downloaders":"{\"size\":10228,\"mobile\":944,\"satellite\":0,\"tor\":0,\"tor_exit_nodes\":0,\"vpn\":80,\"relay\":0,\"proxy\":0,\"hosting\":1545,\"service\":3}","uploaders":"{\"size\":89,\"mobile\":15,\"satellite\":0,\"tor\":0,\"tor_exit_nodes\":0,\"vpn\":0,\"relay\":0,\"proxy\":0,\"hosting\":5,\"service\":0}"},"geometry":{"type":"Point","coordinates":[35.04066,48.46664]}},{"type":"Feature","properties":{"country_code":"SAU","city":"Jeddah","geoname_id":"105343","downloaders":"{\"size\":10223,\"mobile\":2226,\"satellite\":0,\"tor\":0,\"tor_exit_nodes\":0,\"vpn\":15,\"relay\":0,\"proxy\":0,\"hosting\":211,\"service\":0}","uploaders":"{\"size\":339,\"mobile\":171,\"satellite\":0,\"tor\":0,\"tor_exit_nodes\":0,\"vpn\":0,\"relay\":0,\"proxy\":0,\"hosting\":0,\"service\":0}"},"geometry":{"type":"Point","coordinates":[39.18624,21.49012]}},{"type":"Feature","properties":{"country_code":"JPN","city":"Osaka","geoname_id":"1853909","downloaders":"{\"size\":10208,\"mobile\":619,\"satellite\":0,\"tor\":0,\"tor_exit_nodes\":0,\"vpn\":598,\"relay\":0,\"proxy\":0,\"hosting\":787,\"service\":481}","uploaders":"{\"size\":78,\"mobile\":7,\"satellite\":0,\"tor\":0,\"tor_exit_nodes\":0,\"vpn\":43,\"relay\":0,\"proxy\":0,\"hosting\":52,\"service\":43}"},"geometry":{"type":"Point","coordinates":[135.50107,34.69379]}},{"type":"Feature","properties":{"country_code":"USA","city":"Miami","geoname_id":"4164138","downloaders":"{\"size\":10204,\"mobile\":314,\"satellite\":31,\"tor\":2,\"tor_exit_nodes\":2,\"vpn\":5820,\"relay\":2,\"proxy\":2,\"hosting\":7808,\"service\":5618}","uploaders":"{\"size\":1055,\"mobile\":88,\"satellite\":9,\"tor\":0,\"tor_exit_nodes\":0,\"vpn\":809,\"relay\":2,\"proxy\":0,\"hosting\":824,\"service\":761}"},"geometry":{"type":"Point","coordinates":[-80.18,25.7867]}},{"type":"Feature","properties":{"country_code":"RUS","city":"Lyubertsy","geoname_id":"532615","downloaders":"{\"size\":10172,\"mobile\":91,\"satellite\":0,\"tor\":0,\"tor_exit_nodes\":0,\"vpn\":266,\"relay\":0,\"proxy\":0,\"hosting\":1168,\"service\":1}","uploaders":"{\"size\":14,\"mobile\":1,\"satellite\":0,\"tor\":0,\"tor_exit_nodes\":0,\"vpn\":0,\"relay\":0,\"proxy\":0,\"hosting\":0,\"service\":0}"},"geometry":{"type":"Point","coordinates":[37.89322,55.67719]}},{"type":"Feature","properties":{"country_code":"FRA","city":"Villecresnes","geoname_id":"2968823","downloaders":"{\"size\":9983,\"mobile\":0,\"satellite\":0,\"tor\":0,\"tor_exit_nodes\":0,\"vpn\":5862,\"relay\":0,\"proxy\":0,\"hosting\":9941,\"service\":3577}","uploaders":"{\"size\":70,\"mobile\":0,\"satellite\":0,\"tor\":0,\"tor_exit_nodes\":0,\"vpn\":43,\"relay\":0,\"proxy\":0,\"hosting\":70,\"service\":40}"},"geometry":{"type":"Point","coordinates":[2.5394,48.72002]}},{"type":"Feature","properties":{"country_code":"GRC","city":"Thessaloníki","geoname_id":"734077","downloaders":"{\"size\":9956,\"mobile\":678,\"satellite\":0,\"tor\":0,\"tor_exit_nodes\":0,\"vpn\":24,\"relay\":0,\"proxy\":0,\"hosting\":234,\"service\":5}","uploaders":"{\"size\":812,\"mobile\":180,\"satellite\":0,\"tor\":0,\"tor_exit_nodes\":0,\"vpn\":0,\"relay\":0,\"proxy\":0,\"hosting\":2,\"service\":0}"},"geometry":{"type":"Point","coordinates":[22.93086,40.64361]}},{"type":"Feature","properties":{"country_code":"ESP","city":"Valencia","geoname_id":"2509954","downloaders":"{\"size\":9954,\"mobile\":5012,\"satellite\":0,\"tor\":0,\"tor_exit_nodes\":0,\"vpn\":171,\"relay\":0,\"proxy\":0,\"hosting\":173,\"service\":153}","uploaders":"{\"size\":899,\"mobile\":273,\"satellite\":0,\"tor\":0,\"tor_exit_nodes\":0,\"vpn\":36,\"relay\":0,\"proxy\":0,\"hosting\":34,\"service\":34}"},"geometry":{"type":"Point","coordinates":[-0.37966,39.47391]}},{"type":"Feature","properties":{"country_code":"MEX","city":"Puebla","geoname_id":"3521081","downloaders":"{\"size\":9810,\"mobile\":10,\"satellite\":0,\"tor\":0,\"tor_exit_nodes\":0,\"vpn\":1,\"relay\":0,\"proxy\":0,\"hosting\":0,\"service\":1}","uploaders":"{\"size\":14,\"mobile\":4,\"satellite\":0,\"tor\":0,\"tor_exit_nodes\":0,\"vpn\":0,\"relay\":0,\"proxy\":0,\"hosting\":0,\"service\":0}"},"geometry":{"type":"Point","coordinates":[-98.20723,19.04778]}},{"type":"Feature","properties":{"country_code":"KOR","city":"Changwon","geoname_id":"1846326","downloaders":"{\"size\":9769,\"mobile\":28,\"satellite\":0,\"tor\":0,\"tor_exit_nodes\":0,\"vpn\":44,\"relay\":0,\"proxy\":0,\"hosting\":0,\"service\":4}","uploaders":"{\"size\":38,\"mobile\":0,\"satellite\":0,\"tor\":0,\"tor_exit_nodes\":0,\"vpn\":0,\"relay\":0,\"proxy\":0,\"hosting\":0,\"service\":0}"},"geometry":{"type":"Point","coordinates":[128.68111,35.22806]}},{"type":"Feature","properties":{"country_code":"RUS","city":"Murmansk","geoname_id":"524305","downloaders":"{\"size\":9722,\"mobile\":491,\"satellite\":0,\"tor\":0,\"tor_exit_nodes\":0,\"vpn\":60,\"relay\":0,\"proxy\":0,\"hosting\":0,\"service\":6}","uploaders":"{\"size\":21,\"mobile\":1,\"satellite\":0,\"tor\":0,\"tor_exit_nodes\":0,\"vpn\":0,\"relay\":0,\"proxy\":0,\"hosting\":0,\"service\":0}"},"geometry":{"type":"Point","coordinates":[33.09747,68.97398]}},{"type":"Feature","properties":{"country_code":"RUS","city":"Noginsk","geoname_id":"520068","downloaders":"{\"size\":9708,\"mobile\":5,\"satellite\":0,\"tor\":0,\"tor_exit_nodes\":0,\"vpn\":360,\"relay\":0,\"proxy\":0,\"hosting\":35,\"service\":155}","uploaders":"{\"size\":13,\"mobile\":0,\"satellite\":0,\"tor\":0,\"tor_exit_nodes\":0,\"vpn\":0,\"relay\":0,\"proxy\":0,\"hosting\":0,\"service\":0}"},"geometry":{"type":"Point","coordinates":[38.44853,55.86486]}},{"type":"Feature","properties":{"country_code":"TZA","city":"Dar es Salaam","geoname_id":"160263","downloaders":"{\"size\":9635,\"mobile\":4604,\"satellite\":0,\"tor\":0,\"tor_exit_nodes\":0,\"vpn\":137,\"relay\":0,\"proxy\":0,\"hosting\":181,\"service\":15}","uploaders":"{\"size\":2801,\"mobile\":1136,\"satellite\":0,\"tor\":0,\"tor_exit_nodes\":0,\"vpn\":56,\"relay\":0,\"proxy\":0,\"hosting\":37,\"service\":3}"},"geometry":{"type":"Point","coordinates":[39.26951,-6.82349]}},{"type":"Feature","properties":{"country_code":"MYS","city":"Kuala Lumpur","geoname_id":"1735161","downloaders":"{\"size\":9622,\"mobile\":3196,\"satellite\":0,\"tor\":0,\"tor_exit_nodes\":0,\"vpn\":419,\"relay\":14,\"proxy\":0,\"hosting\":519,\"service\":356}","uploaders":"{\"size\":1314,\"mobile\":377,\"satellite\":0,\"tor\":0,\"tor_exit_nodes\":0,\"vpn\":82,\"relay\":0,\"proxy\":0,\"hosting\":90,\"service\":77}"},"geometry":{"type":"Point","coordinates":[101.68653,3.1412]}},{"type":"Feature","properties":{"country_code":"THA","city":"Bangkok","geoname_id":"1609350","downloaders":"{\"size\":9616,\"mobile\":2697,\"satellite\":0,\"tor\":0,\"tor_exit_nodes\":0,\"vpn\":235,\"relay\":0,\"proxy\":0,\"hosting\":1168,\"service\":116}","uploaders":"{\"size\":805,\"mobile\":226,\"satellite\":0,\"tor\":0,\"tor_exit_nodes\":0,\"vpn\":7,\"relay\":0,\"proxy\":0,\"hosting\":27,\"service\":4}"},"geometry":{"type":"Point","coordinates":[100.50144,13.75398]}},{"type":"Feature","properties":{"country_code":"KOR","city":"Hwado","geoname_id":"1897118","downloaders":"{\"size\":9603,\"mobile\":4,\"satellite\":0,\"tor\":0,\"tor_exit_nodes\":0,\"vpn\":151,\"relay\":0,\"proxy\":0,\"hosting\":0,\"service\":14}","uploaders":"{\"size\":24,\"mobile\":0,\"satellite\":0,\"tor\":0,\"tor_exit_nodes\":0,\"vpn\":0,\"relay\":0,\"proxy\":0,\"hosting\":0,\"service\":0}"},"geometry":{"type":"Point","coordinates":[127.3075,37.6525]}},{"type":"Feature","properties":{"country_code":"SVK","city":"Bratislava","geoname_id":"3060972","downloaders":"{\"size\":9523,\"mobile\":70,\"satellite\":6,\"tor\":0,\"tor_exit_nodes\":0,\"vpn\":511,\"relay\":0,\"proxy\":2,\"hosting\":738,\"service\":349}","uploaders":"{\"size\":298,\"mobile\":6,\"satellite\":4,\"tor\":0,\"tor_exit_nodes\":0,\"vpn\":32,\"relay\":0,\"proxy\":0,\"hosting\":45,\"service\":30}"},"geometry":{"type":"Point","coordinates":[17.10674,48.14816]}},{"type":"Feature","properties":{"country_code":"RUS","city":"Mytishchi","geoname_id":"523812","downloaders":"{\"size\":9511,\"mobile\":6,\"satellite\":0,\"tor\":0,\"tor_exit_nodes\":0,\"vpn\":267,\"relay\":0,\"proxy\":0,\"hosting\":194,\"service\":2}","uploaders":"{\"size\":18,\"mobile\":0,\"satellite\":0,\"tor\":0,\"tor_exit_nodes\":0,\"vpn\":0,\"relay\":0,\"proxy\":0,\"hosting\":0,\"service\":0}"},"geometry":{"type":"Point","coordinates":[37.72964,55.91099]}},{"type":"Feature","properties":{"country_code":"BRA","city":"Campinas","geoname_id":"3467865","downloaders":"{\"size\":9479,\"mobile\":1551,\"satellite\":0,\"tor\":0,\"tor_exit_nodes\":0,\"vpn\":20,\"relay\":0,\"proxy\":0,\"hosting\":20,\"service\":0}","uploaders":"{\"size\":62,\"mobile\":4,\"satellite\":0,\"tor\":0,\"tor_exit_nodes\":0,\"vpn\":0,\"relay\":0,\"proxy\":0,\"hosting\":2,\"service\":0}"},"geometry":{"type":"Point","coordinates":[-47.06083,-22.90556]}},{"type":"Feature","properties":{"country_code":"MEX","city":"Tijuana","geoname_id":"3981609","downloaders":"{\"size\":9453,\"mobile\":7,\"satellite\":0,\"tor\":0,\"tor_exit_nodes\":0,\"vpn\":11,\"relay\":0,\"proxy\":0,\"hosting\":0,\"service\":3}","uploaders":"{\"size\":31,\"mobile\":0,\"satellite\":0,\"tor\":0,\"tor_exit_nodes\":0,\"vpn\":0,\"relay\":0,\"proxy\":0,\"hosting\":0,\"service\":0}"},"geometry":{"type":"Point","coordinates":[-117.00371,32.5027]}},{"type":"Feature","properties":{"country_code":"CHN","city":"Tianjin","geoname_id":"1792947","downloaders":"{\"size\":9405,\"mobile\":0,\"satellite\":0,\"tor\":0,\"tor_exit_nodes\":0,\"vpn\":130,\"relay\":0,\"proxy\":0,\"hosting\":81,\"service\":0}","uploaders":"{\"size\":76,\"mobile\":0,\"satellite\":0,\"tor\":0,\"tor_exit_nodes\":0,\"vpn\":2,\"relay\":0,\"proxy\":0,\"hosting\":0,\"service\":0}"},"geometry":{"type":"Point","coordinates":[117.17667,39.14222]}},{"type":"Feature","properties":{"country_code":"DEU","city":"Nürnberg","geoname_id":"2861650","downloaders":"{\"size\":9387,\"mobile\":606,\"satellite\":0,\"tor\":47,\"tor_exit_nodes\":52,\"vpn\":186,\"relay\":0,\"proxy\":0,\"hosting\":8263,\"service\":72}","uploaders":"{\"size\":923,\"mobile\":0,\"satellite\":0,\"tor\":0,\"tor_exit_nodes\":0,\"vpn\":0,\"relay\":0,\"proxy\":0,\"hosting\":921,\"service\":0}"},"geometry":{"type":"Point","coordinates":[11.07752,49.45421]}},{"type":"Feature","properties":{"country_code":"LTU","city":"Kaunas","geoname_id":"598316","downloaders":"{\"size\":9387,\"mobile\":282,\"satellite\":0,\"tor\":0,\"tor_exit_nodes\":0,\"vpn\":31,\"relay\":0,\"proxy\":0,\"hosting\":193,\"service\":0}","uploaders":"{\"size\":44,\"mobile\":4,\"satellite\":0,\"tor\":0,\"tor_exit_nodes\":0,\"vpn\":0,\"relay\":0,\"proxy\":0,\"hosting\":0,\"service\":0}"},"geometry":{"type":"Point","coordinates":[23.90961,54.90272]}},{"type":"Feature","properties":{"country_code":"BRA","city":"Belo Horizonte","geoname_id":"3470127","downloaders":"{\"size\":9379,\"mobile\":201,\"satellite\":0,\"tor\":0,\"tor_exit_nodes\":0,\"vpn\":17,\"relay\":0,\"proxy\":0,\"hosting\":7,\"service\":0}","uploaders":"{\"size\":68,\"mobile\":4,\"satellite\":0,\"tor\":0,\"tor_exit_nodes\":0,\"vpn\":0,\"relay\":0,\"proxy\":0,\"hosting\":0,\"service\":0}"},"geometry":{"type":"Point","coordinates":[-43.93778,-19.92083]}},{"type":"Feature","properties":{"country_code":"POL","city":"Mokotów","geoname_id":"764484","downloaders":"{\"size\":9274,\"mobile\":93,\"satellite\":0,\"tor\":0,\"tor_exit_nodes\":0,\"vpn\":1,\"relay\":0,\"proxy\":0,\"hosting\":18,\"service\":0}","uploaders":"{\"size\":135,\"mobile\":8,\"satellite\":0,\"tor\":0,\"tor_exit_nodes\":0,\"vpn\":0,\"relay\":0,\"proxy\":0,\"hosting\":1,\"service\":0}"},"geometry":{"type":"Point","coordinates":[20.9944,52.177]}},{"type":"Feature","properties":{"country_code":"RUS","city":"Naberezhnyye Chelny","geoname_id":"523750","downloaders":"{\"size\":9082,\"mobile\":289,\"satellite\":0,\"tor\":0,\"tor_exit_nodes\":0,\"vpn\":93,\"relay\":0,\"proxy\":0,\"hosting\":0,\"service\":2}","uploaders":"{\"size\":14,\"mobile\":2,\"satellite\":0,\"tor\":0,\"tor_exit_nodes\":0,\"vpn\":0,\"relay\":0,\"proxy\":0,\"hosting\":0,\"service\":0}"},"geometry":{"type":"Point","coordinates":[52.41122,55.72545]}},{"type":"Feature","properties":{"country_code":"TWN","city":"Banqiao","geoname_id":"1670029","downloaders":"{\"size\":8948,\"mobile\":85,\"satellite\":0,\"tor\":0,\"tor_exit_nodes\":0,\"vpn\":296,\"relay\":0,\"proxy\":0,\"hosting\":104,\"service\":0}","uploaders":"{\"size\":234,\"mobile\":7,\"satellite\":0,\"tor\":0,\"tor_exit_nodes\":0,\"vpn\":2,\"relay\":0,\"proxy\":0,\"hosting\":5,\"service\":0}"},"geometry":{"type":"Point","coordinates":[121.46719,25.01427]}},{"type":"Feature","properties":{"country_code":"UKR","city":"Odesa","geoname_id":"698740","downloaders":"{\"size\":8893,\"mobile\":4,\"satellite\":0,\"tor\":0,\"tor_exit_nodes\":0,\"vpn\":97,\"relay\":0,\"proxy\":0,\"hosting\":35,\"service\":0}","uploaders":"{\"size\":58,\"mobile\":0,\"satellite\":0,\"tor\":0,\"tor_exit_nodes\":0,\"vpn\":0,\"relay\":0,\"proxy\":0,\"hosting\":4,\"service\":0}"},"geometry":{"type":"Point","coordinates":[30.74383,46.48572]}},{"type":"Feature","properties":{"country_code":"NZL","city":"Auckland","geoname_id":"2193733","downloaders":"{\"size\":8869,\"mobile\":3476,\"satellite\":44,\"tor\":0,\"tor_exit_nodes\":0,\"vpn\":1573,\"relay\":0,\"proxy\":0,\"hosting\":1518,\"service\":1450}","uploaders":"{\"size\":1173,\"mobile\":447,\"satellite\":20,\"tor\":0,\"tor_exit_nodes\":0,\"vpn\":286,\"relay\":0,\"proxy\":0,\"hosting\":285,\"service\":275}"},"geometry":{"type":"Point","coordinates":[174.76349,-36.84853]}},{"type":"Feature","properties":{"country_code":"COL","city":"Medellín","geoname_id":"3674962","downloaders":"{\"size\":8831,\"mobile\":2329,\"satellite\":0,\"tor\":0,\"tor_exit_nodes\":0,\"vpn\":10,\"relay\":0,\"proxy\":0,\"hosting\":20,\"service\":0}","uploaders":"{\"size\":41,\"mobile\":8,\"satellite\":0,\"tor\":0,\"tor_exit_nodes\":0,\"vpn\":0,\"relay\":0,\"proxy\":0,\"hosting\":0,\"service\":0}"},"geometry":{"type":"Point","coordinates":[-75.57151,6.245]}},{"type":"Feature","properties":{"country_code":"KOR","city":"Pyeongtaek","geoname_id":"1838343","downloaders":"{\"size\":8761,\"mobile\":0,\"satellite\":0,\"tor\":0,\"tor_exit_nodes\":0,\"vpn\":43,\"relay\":0,\"proxy\":0,\"hosting\":0,\"service\":3}","uploaders":"{\"size\":28,\"mobile\":0,\"satellite\":0,\"tor\":0,\"tor_exit_nodes\":0,\"vpn\":0,\"relay\":0,\"proxy\":0,\"hosting\":0,\"service\":0}"},"geometry":{"type":"Point","coordinates":[127.08889,36.99472]}},{"type":"Feature","properties":{"country_code":"RUS","city":"Podolsk","geoname_id":"508101","downloaders":"{\"size\":8740,\"mobile\":80,\"satellite\":0,\"tor\":0,\"tor_exit_nodes\":0,\"vpn\":234,\"relay\":0,\"proxy\":0,\"hosting\":116,\"service\":1}","uploaders":"{\"size\":18,\"mobile\":0,\"satellite\":0,\"tor\":0,\"tor_exit_nodes\":0,\"vpn\":0,\"relay\":0,\"proxy\":0,\"hosting\":0,\"service\":0}"},"geometry":{"type":"Point","coordinates":[37.55472,55.42419]}},{"type":"Feature","properties":{"country_code":"JAM","city":"Kingston","geoname_id":"3489854","downloaders":"{\"size\":8679,\"mobile\":3222,\"satellite\":1,\"tor\":0,\"tor_exit_nodes\":0,\"vpn\":15,\"relay\":0,\"proxy\":0,\"hosting\":687,\"service\":9}","uploaders":"{\"size\":459,\"mobile\":245,\"satellite\":0,\"tor\":0,\"tor_exit_nodes\":0,\"vpn\":4,\"relay\":0,\"proxy\":0,\"hosting\":23,\"service\":4}"},"geometry":{"type":"Point","coordinates":[-76.79358,17.99702]}},{"type":"Feature","properties":{"country_code":"CHN","city":"Chengdu","geoname_id":"1815286","downloaders":"{\"size\":8669,\"mobile\":0,\"satellite\":0,\"tor\":0,\"tor_exit_nodes\":0,\"vpn\":221,\"relay\":0,\"proxy\":1,\"hosting\":307,\"service\":0}","uploaders":"{\"size\":231,\"mobile\":0,\"satellite\":0,\"tor\":0,\"tor_exit_nodes\":0,\"vpn\":2,\"relay\":0,\"proxy\":0,\"hosting\":8,\"service\":0}"},"geometry":{"type":"Point","coordinates":[104.06667,30.66667]}},{"type":"Feature","properties":{"country_code":"TUR","city":"İzmit","geoname_id":"745028","downloaders":"{\"size\":8665,\"mobile\":1002,\"satellite\":0,\"tor\":0,\"tor_exit_nodes\":0,\"vpn\":0,\"relay\":0,\"proxy\":0,\"hosting\":0,\"service\":0}","uploaders":"{\"size\":7,\"mobile\":0,\"satellite\":0,\"tor\":0,\"tor_exit_nodes\":0,\"vpn\":0,\"relay\":0,\"proxy\":0,\"hosting\":0,\"service\":0}"},"geometry":{"type":"Point","coordinates":[29.92928,40.76499]}},{"type":"Feature","properties":{"country_code":"NGA","city":"Lagos","geoname_id":"2332459","downloaders":"{\"size\":8562,\"mobile\":5103,\"satellite\":248,\"tor\":0,\"tor_exit_nodes\":0,\"vpn\":192,\"relay\":2,\"proxy\":0,\"hosting\":388,\"service\":147}","uploaders":"{\"size\":1415,\"mobile\":739,\"satellite\":115,\"tor\":0,\"tor_exit_nodes\":0,\"vpn\":32,\"relay\":1,\"proxy\":0,\"hosting\":47,\"service\":21}"},"geometry":{"type":"Point","coordinates":[3.39467,6.45407]}},{"type":"Feature","properties":{"country_code":"RUS","city":"Smolensk","geoname_id":"491687","downloaders":"{\"size\":8548,\"mobile\":12,\"satellite\":0,\"tor\":0,\"tor_exit_nodes\":0,\"vpn\":119,\"relay\":0,\"proxy\":0,\"hosting\":0,\"service\":4}","uploaders":"{\"size\":9,\"mobile\":0,\"satellite\":0,\"tor\":0,\"tor_exit_nodes\":0,\"vpn\":0,\"relay\":0,\"proxy\":0,\"hosting\":0,\"service\":0}"},"geometry":{"type":"Point","coordinates":[32.04371,54.77944]}},{"type":"Feature","properties":{"country_code":"BRA","city":"Curitiba","geoname_id":"3464975","downloaders":"{\"size\":8511,\"mobile\":280,\"satellite\":0,\"tor\":0,\"tor_exit_nodes\":0,\"vpn\":22,\"relay\":0,\"proxy\":0,\"hosting\":1016,\"service\":0}","uploaders":"{\"size\":61,\"mobile\":2,\"satellite\":0,\"tor\":0,\"tor_exit_nodes\":0,\"vpn\":0,\"relay\":0,\"proxy\":0,\"hosting\":19,\"service\":0}"},"geometry":{"type":"Point","coordinates":[-49.27306,-25.42778]}},{"type":"Feature","properties":{"country_code":"AUS","city":"Perth","geoname_id":"2063523","downloaders":"{\"size\":8502,\"mobile\":468,\"satellite\":55,\"tor\":0,\"tor_exit_nodes\":0,\"vpn\":2567,\"relay\":0,\"proxy\":0,\"hosting\":2608,\"service\":2443}","uploaders":"{\"size\":1267,\"mobile\":92,\"satellite\":13,\"tor\":0,\"tor_exit_nodes\":0,\"vpn\":379,\"relay\":0,\"proxy\":0,\"hosting\":416,\"service\":372}"},"geometry":{"type":"Point","coordinates":[115.8614,-31.95224]}},{"type":"Feature","properties":{"country_code":"FRA","city":"Strasbourg","geoname_id":"2973783","downloaders":"{\"size\":8484,\"mobile\":1232,\"satellite\":0,\"tor\":0,\"tor_exit_nodes\":15,\"vpn\":222,\"relay\":0,\"proxy\":0,\"hosting\":4343,\"service\":207}","uploaders":"{\"size\":80,\"mobile\":2,\"satellite\":0,\"tor\":0,\"tor_exit_nodes\":2,\"vpn\":7,\"relay\":0,\"proxy\":0,\"hosting\":61,\"service\":6}"},"geometry":{"type":"Point","coordinates":[7.74553,48.58392]}},{"type":"Feature","properties":{"country_code":"SWE","city":"Göteborg","geoname_id":"2711537","downloaders":"{\"size\":8478,\"mobile\":768,\"satellite\":0,\"tor\":0,\"tor_exit_nodes\":0,\"vpn\":916,\"relay\":0,\"proxy\":0,\"hosting\":734,\"service\":867}","uploaders":"{\"size\":264,\"mobile\":44,\"satellite\":0,\"tor\":0,\"tor_exit_nodes\":0,\"vpn\":80,\"relay\":0,\"proxy\":0,\"hosting\":69,\"service\":78}"},"geometry":{"type":"Point","coordinates":[11.96679,57.70716]}},{"type":"Feature","properties":{"country_code":"RUS","city":"Kursk","geoname_id":"538560","downloaders":"{\"size\":8457,\"mobile\":27,\"satellite\":0,\"tor\":0,\"tor_exit_nodes\":0,\"vpn\":47,\"relay\":0,\"proxy\":0,\"hosting\":323,\"service\":1}","uploaders":"{\"size\":8,\"mobile\":0,\"satellite\":0,\"tor\":0,\"tor_exit_nodes\":0,\"vpn\":1,\"relay\":0,\"proxy\":0,\"hosting\":1,\"service\":0}"},"geometry":{"type":"Point","coordinates":[36.18712,51.73758]}},{"type":"Feature","properties":{"country_code":"","city":"","geoname_id":"","downloaders":"{\"size\":8449,\"mobile\":0,\"satellite\":0,\"tor\":0,\"tor_exit_nodes\":0,\"vpn\":0,\"relay\":0,\"proxy\":0,\"hosting\":4,\"service\":0}","uploaders":"{\"size\":22,\"mobile\":0,\"satellite\":0,\"tor\":0,\"tor_exit_nodes\":0,\"vpn\":0,\"relay\":0,\"proxy\":0,\"hosting\":0,\"service\":0}"},"geometry":{"type":"Point","coordinates":[0.0,0.0]}},{"type":"Feature","properties":{"country_code":"JPN","city":"Yokohama","geoname_id":"1848354","downloaders":"{\"size\":8394,\"mobile\":578,\"satellite\":0,\"tor\":0,\"tor_exit_nodes\":0,\"vpn\":401,\"relay\":3,\"proxy\":0,\"hosting\":241,\"service\":334}","uploaders":"{\"size\":29,\"mobile\":5,\"satellite\":0,\"tor\":0,\"tor_exit_nodes\":0,\"vpn\":2,\"relay\":0,\"proxy\":0,\"hosting\":0,\"service\":2}"},"geometry":{"type":"Point","coordinates":[139.65,35.43333]}},{"type":"Feature","properties":{"country_code":"RUS","city":"Saransk","geoname_id":"498698","downloaders":"{\"size\":8393,\"mobile\":510,\"satellite\":0,\"tor\":0,\"tor_exit_nodes\":0,\"vpn\":41,\"relay\":0,\"proxy\":0,\"hosting\":0,\"service\":0}","uploaders":"{\"size\":9,\"mobile\":1,\"satellite\":0,\"tor\":0,\"tor_exit_nodes\":0,\"vpn\":0,\"relay\":0,\"proxy\":0,\"hosting\":0,\"service\":0}"},"geometry":{"type":"Point","coordinates":[45.1749,54.1838]}},{"type":"Feature","properties":{"country_code":"KOR","city":"Cheonan","geoname_id":"1845759","downloaders":"{\"size\":8389,\"mobile\":0,\"satellite\":0,\"tor\":0,\"tor_exit_nodes\":0,\"vpn\":48,\"relay\":0,\"proxy\":0,\"hosting\":0,\"service\":8}","uploaders":"{\"size\":24,\"mobile\":0,\"satellite\":0,\"tor\":0,\"tor_exit_nodes\":0,\"vpn\":0,\"relay\":0,\"proxy\":0,\"hosting\":0,\"service\":0}"},"geometry":{"type":"Point","coordinates":[127.1522,36.8065]}},{"type":"Feature","properties":{"country_code":"PRY","city":"Asunción","geoname_id":"3439389","downloaders":"{\"size\":8386,\"mobile\":4110,\"satellite\":0,\"tor\":0,\"tor_exit_nodes\":0,\"vpn\":7,\"relay\":0,\"proxy\":0,\"hosting\":11,\"service\":5}","uploaders":"{\"size\":80,\"mobile\":26,\"satellite\":0,\"tor\":0,\"tor_exit_nodes\":0,\"vpn\":0,\"relay\":0,\"proxy\":0,\"hosting\":0,\"service\":0}"},"geometry":{"type":"Point","coordinates":[-57.647,-25.28646]}},